OBJECTID,Name,Address,Phone,Website,NAICS_Code,NAICS_Info,MarketType,Materials,Latitude,Longitude
1,Taylor-Backes Inc,"0 2nd and Washington St, Boyertown, PA, 19512",(610) 367-4600,www.taylorbackes.com,327212,Other Pressed and Blown Glass and Glassware Manufacturing,Potential Primary End Market,Glass,40.3396,-75.6641
2,"Easyglass, Inc.","1 Andrew Pearson Dr, Mount Airy, NC, 27030-2124",(336) 786-1800,www.andrewpearsonglass.com,327212,Other Pressed and Blown Glass and Glassware Manufacturing,Potential Primary End Market,Glass,36.532178,-80.63845
3,"AGC Flat Glass North America, Inc.","1 Auto Glass Dr, Elizabethtown, KY, 42701-4500",(270) 737-0189,www.agc.com,327211,Flat Glass Manufacturing,Potential Primary End Market,Glass,37.668546,-85.92028
4,Vandermark Merritt Glass Studios,"1 D Angelo Dr, Branchburg, NJ, 08876-5464", ,www.vandermarkmerrittglass.com,327212,Other Pressed and Blown Glass and Glassware Manufacturing,Potential Primary End Market,Glass,40.587361,-74.71097
5,Astic Signals Defenses L.L.C.,"1 Easter CT Ste E, Owings Mills, MD, 21117-3294",(410) 902-0356,www.signalsdefense.com,327212,Other Pressed and Blown Glass and Glassware Manufacturing,Potential Primary End Market,Glass,39.420493,-76.80788
6,"Princeton Optronics, Inc.","1 Electronics Dr, Trenton, NJ, 08619-2086",(609) 584-9696,www.ams.com,327212,Other Pressed and Blown Glass and Glassware Manufacturing,Potential Primary End Market,Glass,40.261509,-74.70588
7,"Fiberoptics Technology, Inc.","1 Fiber Rd, Pomfret, CT, 06258-8003",(860) 928-0443,www.fiberopticstech.com,327212,Other Pressed and Blown Glass and Glassware Manufacturing,Potential Primary End Market,Glass,41.8975,-71.963
8,"Pochet of America, Inc","1 Garret Mountain Plz # 502, Woodland Park, NJ, 07424-3320",(973) 942-4923,www.pochet.fr,327213,Glass Container Manufacturing,Potential Primary End Market,Glass,40.901391,-74.18821
9,Verallia,"1 Glass Pl, Port Allegany, PA, 16743-1154",(814) 642-2521, ,327213,Glass Container Manufacturing,Potential Primary End Market,Glass,41.817285,-78.28838
10,Oi Australia Inc.,"1 Michael Owens Way, Perrysburg, OH, 43551-2999",(567) 336-5000,www.o-i.com,327213,Glass Container Manufacturing,Potential Primary End Market,Glass,41.52787,-83.64714
11,"O-I Latam Hq, Inc.","1 Michael Owens Way, Perrysburg, OH, 43551-2999",(567) 336-5000,www.o-i.com,327213,Glass Container Manufacturing,Potential Primary End Market,Glass,41.52787,-83.64714
12,"Bolivian Investments, Inc.","1 Michael Owens Way, Perrysburg, OH, 43551-2999", , ,327213,Glass Container Manufacturing,Potential Primary End Market,Glass,41.52787,-83.64714
13,Maumee Air Associates Inc.,"1 Michael Owens Way, Perrysburg, OH, 43551-2999", , ,327213,Glass Container Manufacturing,Potential Primary End Market,Glass,41.52787,-83.64714
14,Oi Andover Group Inc.,"1 Michael Owens Way, Perrysburg, OH, 43551-2999", , ,327213,Glass Container Manufacturing,Potential Primary End Market,Glass,41.52787,-83.64714
15,O-I Ecuador LLC,"1 Michael Owens Way, Perrysburg, OH, 43551-2999", ,www.o-i.com,327213,Glass Container Manufacturing,Potential Primary End Market,Glass,41.52787,-83.64714
16,O-I Global Holdings LLC,"1 Michael Owens Way, Perrysburg, OH, 43551-2999", ,www.o-i.com,327213,Glass Container Manufacturing,Potential Primary End Market,Glass,41.52787,-83.64714
17,"Seagate II, Inc.","1 Michael Owens Way, Perrysburg, OH, 43551-2999", , ,327213,Glass Container Manufacturing,Potential Primary End Market,Glass,41.52787,-83.64714
18,"Seagate III, Inc.","1 Michael Owens Way, Perrysburg, OH, 43551-2999", , ,327213,Glass Container Manufacturing,Potential Primary End Market,Glass,41.52787,-83.64714
19,"Aci Ventures, Inc.","1 Michael Owens Way, Perrysburg, OH, 43551-2999", , ,327213,Glass Container Manufacturing,Potential Primary End Market,Glass,41.52787,-83.64714
20,O-I Americas LLC,"1 Michael Owens Way, Perrysburg, OH, 43551-2999", ,www.o-i.com,327213,Glass Container Manufacturing,Potential Primary End Market,Glass,41.52787,-83.64714
21,"Oi Advisors, Inc.","1 Michael Owens Way, Perrysburg, OH, 43551-2999", ,www.o-i.com,327213,Glass Container Manufacturing,Potential Primary End Market,Glass,41.52787,-83.64714
22,"Oi Transfer, Inc.","1 Michael Owens Way, Perrysburg, OH, 43551-2999", , ,327213,Glass Container Manufacturing,Potential Primary End Market,Glass,41.52787,-83.64714
23,"O-I Glass, Inc.","1 Michael Owens Way, Perrysburg, OH, 43551-2999",(567) 336-5000, ,327213,Glass Container Manufacturing,Potential Primary End Market,Glass,41.52787,-83.64714
24,"Paddock Enterprises, LLC","1 Michael Owens Way, Perrysburg, OH, 43551-2999",(567) 336-5000, ,327213,Glass Container Manufacturing,Potential Primary End Market,Glass,41.52787,-83.64714
25,Owens-Illinois General Inc.,"1 Michael Owens Way, Perrysburg, OH, 43551-2999",(567) 336-5000,www.o-i.com,327213,Glass Container Manufacturing,Potential Primary End Market,Glass,41.52787,-83.64714
26,Owens-Brockway Glass Container Inc.,"1 Michael Owens Way, Perrysburg, OH, 43551-2999",(567) 336-8449,www.o-i.com,327213,Glass Container Manufacturing,Potential Primary End Market,Glass,41.52787,-83.64714
27,"Owens-Brockway Packaging, Inc.","1 Michael Owens Way, Perrysburg, OH, 43551-2999",(567) 336-5000,www.o-i.com,327213,Glass Container Manufacturing,Potential Primary End Market,Glass,41.52787,-83.64714
28,"Owens-Illinois Group, Inc.","1 Michael Owens Way, Perrysburg, OH, 43551-2999",(567) 336-5000,www.o-i.com,327213,Glass Container Manufacturing,Potential Primary End Market,Glass,41.52787,-83.64714
29,Corning Incorporated,"1 Museum Way, Corning, NY, 14830-2253",(607) 974-8496,www.corning.com,327212,Other Pressed and Blown Glass and Glassware Manufacturing,Potential Primary End Market,Glass,42.149104,-77.05778
30,"Pittsburgh Corning, LLC","1 Owens Corning Pkwy, Toledo, OH, 43659-1000",(724) 327-6100,www.foamglas.com,327212,Other Pressed and Blown Glass and Glassware Manufacturing,Potential Primary End Market,Glass,41.646249,-83.536
31,Pittsburg Corning Corp Di,"1 Owens Corning Pkwy, Toledo, OH, 43659-1000",(724) 327-6100,www.pittsburghcorning.com,327212,Other Pressed and Blown Glass and Glassware Manufacturing,Potential Primary End Market,Glass,41.646249,-83.536
32,Corning Vitro Corporation,"1 Riverfront Plz, Corning, NY, 14830-2556",(607) 974-8605,www.corning.com,327212,Other Pressed and Blown Glass and Glassware Manufacturing,Potential Primary End Market,Glass,42.1424,-77.0614
33,"Discovery Labware, Inc.","1 Riverfront Plz, Corning, NY, 14831-0001", ,www.corning.com,327212,Other Pressed and Blown Glass and Glassware Manufacturing,Potential Primary End Market,Glass,42.145002,-77.05562
34,Corning Incorporated,"1 Riverfront Plz, Corning, NY, 14831-0002",(607) 974-9000,www.corning.com,327212,Other Pressed and Blown Glass and Glassware Manufacturing,Potential Primary End Market,Glass,42.142,-77.0577
35,Corning International Corporation,"1 Riverfront Plz, Corning, NY, 14831-0002",(607) 974-9000,www.corning.com,327212,Other Pressed and Blown Glass and Glassware Manufacturing,Potential Primary End Market,Glass,42.142,-77.0577
36,Corning Incorporated,"1 Riverfront Plz, Corning, NY, 14831-0002",(607) 248-2000,www.corning.com,327212,Other Pressed and Blown Glass and Glassware Manufacturing,Potential Primary End Market,Glass,42.142,-77.0577
37,"Corning Netoptix, Inc.","1 Riverfront Plz, Corning, NY, 14831-0002", ,www.corning.com,327212,Other Pressed and Blown Glass and Glassware Manufacturing,Potential Primary End Market,Glass,42.145002,-77.05562
38,Ardagh Glass Inc.,"1 Rotary Ctr, Evanston, IL, 60201-4422", ,www.ardaghgroup.com,327213,Glass Container Manufacturing,Potential Primary End Market,Glass,42.0457,-87.682
39,"Pittsburgh Glass Works, LLC","1 Rte 220, Tipton, PA, 16684",(814) 684-2300,www.pgwglass.com,327211,Flat Glass Manufacturing,Potential Primary End Market,Glass,40.6358,-78.2961
40,"A C I America Holdings, Inc","1 Seagate, Toledo, OH, 43604-1558",(419) 247-5000, ,327213,Glass Container Manufacturing,Potential Primary End Market,Glass,41.653287,-83.53109
41,Owens-Illinois De Puerto Rico,"1 Seagate, Toledo, OH, 43604-1558",(419) 874-9708,www.o-i.com,327213,Glass Container Manufacturing,Potential Primary End Market,Glass,41.653287,-83.53109
42,Corning Incorporated,"1 W Market St Ste 601, Corning, NY, 14830-2673",(607) 974-4488,www.corning.com,327212,Other Pressed and Blown Glass and Glassware Manufacturing,Potential Primary End Market,Glass,42.143438,-77.05447
43,Sunset Glassblower,"1 Whitehead St, Key West, FL, 33040-6634",(305) 292-1282, ,327212,Other Pressed and Blown Glass and Glassware Manufacturing,Potential Primary End Market,Glass,24.558914,-81.8069
44,Glassroots Inc,"10 Bleeker St, Newark, NJ, 07102-1903",(973) 353-9555,www.glassroots.org,327212,Other Pressed and Blown Glass and Glassware Manufacturing,Potential Primary End Market,Glass,40.741208,-74.17148
45,"Ofs Fitel, LLC","10 Brightwave Blvd, Norcross, GA, 30071",(770) 798-4210,www.ofsoptics.com,327212,Other Pressed and Blown Glass and Glassware Manufacturing,Potential Primary End Market,Glass,33.930712,-84.18122
46,"Glasstemp, Inc.","10 Davis Dr, Bellwood, IL, 60104-1047", , ,327211,Flat Glass Manufacturing,Potential Primary End Market,Glass,41.89225,-87.89731
47,"New Hampshire Optical Systems, Inc.","10 N Southwood Dr, Nashua, NH, 03063-1819",(603) 391-2909,www.nhosystems.com,327212,Other Pressed and Blown Glass and Glassware Manufacturing,Potential Primary End Market,Glass,42.792317,-71.50227
48,The Glass Shop,"10 S Chestatee St Ste F, Dahlonega, GA, 30533-1215",(706) 864-9022,www.glassblowingshop.com,327212,Other Pressed and Blown Glass and Glassware Manufacturing,Potential Primary End Market,Glass,34.532209,-83.9851
49,Metro Glass & Metal LLC,"10 Wheeling Ave, Woburn, MA, 01801-6809",(781) 281-0667, ,327211,Flat Glass Manufacturing,Potential Primary End Market,Glass,42.500458,-71.13784
50,Lucia's Leatherwood Glass Co,"100 Canyon Gulch Rd, Bellvue, CO, 80512-5717",(970) 482-5462, ,327212,Other Pressed and Blown Glass and Glassware Manufacturing,Potential Primary End Market,Glass,40.61064,-105.232
51,Go Foton Corporation,"100 Century Center CT # 203, San Jose, CA, 95112-4512", ,www.gofoton.com,327212,Other Pressed and Blown Glass and Glassware Manufacturing,Potential Primary End Market,Glass,37.368382,-121.9149
52,Certainteed Corporation,"100 Certainteed Dr, Jonesburg, MO, 63351-2458",(636) 488-5221,www.certainteed.com,327213,Glass Container Manufacturing,Potential Primary End Market,Glass,38.8702,-91.2558
53,Certainteed LLC,"100 Certainteed Dr, Jonesburg, MO, 63351-2458",(636) 235-5050,www.certainteed.com,327213,Glass Container Manufacturing,Potential Primary End Market,Glass,38.8702,-91.2558
54,Art Arttig,"100 Chaddick Dr, Wheeling, IL, 60090-6006",(847) 804-8001,www.arttig.com,327212,Other Pressed and Blown Glass and Glassware Manufacturing,Potential Primary End Market,Glass,42.130305,-87.91823
55,Cbl Architectural Fiberglass Inc,"100 E Valley St, Hernando, MS, 38632-1928", ,www.cblarchitecturalfiberglass.net,327212,Other Pressed and Blown Glass and Glassware Manufacturing,Potential Primary End Market,Glass,34.825328,-89.98799
56,Brunswick Glass LLC,"100 Jersey Ave Ste C102, New Brunswick, NJ, 08901-3200",(732) 401-0759, ,327211,Flat Glass Manufacturing,Potential Primary End Market,Glass,40.488368,-74.4578
57,Universal Eyewear LLC,"100 Louis St Ste J-K, South Hackensack, NJ, 07606-1723",(201) 807-9000, ,327212,Other Pressed and Blown Glass and Glassware Manufacturing,Potential Primary End Market,Glass,40.857531,-74.04762
58,Sundown Liquidating Corp.,"100 Metro Dr, Terrell, TX, 75160-9104", ,www.kingspan.com,327211,Flat Glass Manufacturing,Potential Primary End Market,Glass,32.736781,-96.32226
59,Ralco Glassblowing Co,"100 S Rawhide, Liberty Hill, TX, 78642-4016",(512) 548-6495, ,327212,Other Pressed and Blown Glass and Glassware Manufacturing,Potential Primary End Market,Glass,30.685413,-97.93136
60,Mg Decor LLC,"100 Schindler CT APT 308, East Rutherford, NJ, 07073-2185",(201) 923-5493, ,327212,Other Pressed and Blown Glass and Glassware Manufacturing,Potential Primary End Market,Glass,40.809049,-74.08227
61,Brighter Holidays Inc,"100 SE Gemstone Cir, Lees Summit, MO, 64063-5108",(816) 525-2899, ,327212,Other Pressed and Blown Glass and Glassware Manufacturing,Potential Primary End Market,Glass,38.916489,-94.33135
62,Birmingham Oxmoor Valley,"100 Sunbelt Pkwy, Birmingham, AL, 35211-5958", ,www.ostergolfhouses.com,327212,Other Pressed and Blown Glass and Glassware Manufacturing,Potential Primary End Market,Glass,33.408201,-86.8823
63,"Protective Armored Systems, Inc.","100 Valley St, Lee, MA, 01238",(413) 637-1060,www.pasarmor.com,327211,Flat Glass Manufacturing,Potential Primary End Market,Glass,42.346199,-73.24456
64,"Patriot Armored Systems Holding, LLC","100 Valley St, Lee, MA, 01238-7701",(413) 637-1060,www.pasarmor.com,327211,Flat Glass Manufacturing,Potential Primary End Market,Glass,42.346199,-73.24456
65,Flabeg US Holding Inc.,"1000 Church St, Naugatuck, CT, 06770",(203) 729-5227, ,327212,Other Pressed and Blown Glass and Glassware Manufacturing,Potential Primary End Market,Glass,41.500065,-73.05645
66,West Coast Quartz Corporation,"1000 Corporate Way, Fremont, CA, 94539-6105",(510) 249-2160,www.wcq.com,327212,Other Pressed and Blown Glass and Glassware Manufacturing,Potential Primary End Market,Glass,37.498356,-121.9292
67,"Guardian Industries, LLC","1000 E North St, Albion, MI, 49224-1440",(517) 629-9464,www.guardian.com,327211,Flat Glass Manufacturing,Potential Primary End Market,Glass,42.254096,-84.73911
68,Scents and More,"1000 Georgia Ave, Etowah, TN, 37331-1006",(423) 263-2690,www.sermoclub.com,327212,Other Pressed and Blown Glass and Glassware Manufacturing,Potential Primary End Market,Glass,35.322729,-84.53133
69,Verallia,"1000 N Mission St, Sapulpa, OK, 74066-3149",(918) 224-1440, ,327213,Glass Container Manufacturing,Potential Primary End Market,Glass,36.0099,-96.09893
70,Ardagh Glass Inc.,"1000 N Mission St, Sapulpa, OK, 74066-3149",(918) 224-1440,www.ardaghgroup.com,327213,Glass Container Manufacturing,Potential Primary End Market,Glass,36.0099,-96.09893
71,"Piramal Glass - Usa, Inc.","1000 Taylor Ave, Park Hills, MO, 63601-1769",(573) 431-5743,www.piramalglassusa.com,327213,Glass Container Manufacturing,Potential Primary End Market,Glass,37.861535,-90.52205
72,"Linoleum Sales Co., Inc.","1000 W Grand Ave, Oakland, CA, 94607-2933",(510) 652-1032,www.andersoncf.com,327211,Flat Glass Manufacturing,Potential Primary End Market,Glass,37.814971,-122.2809
73,Glasteel Parts & Services Inc,"1000 West Ave, Rochester, NY, 14611-2442",(585) 235-1010,www.pfaudler.com,327212,Other Pressed and Blown Glass and Glassware Manufacturing,Potential Primary End Market,Glass,43.14942,-77.6633
74,Ardagh Glass Inc.,"1001 13th Ave E, Bradenton, FL, 34208-2656", ,www.ardaghgroup.com,327213,Glass Container Manufacturing,Potential Primary End Market,Glass,27.488108,-82.554
75,Renaissance Enterprises,"1001 Conant Ave, Burley, ID, 83318-1216",(208) 678-2127, ,327212,Other Pressed and Blown Glass and Glassware Manufacturing,Potential Primary End Market,Glass,42.540582,-113.7971
76,One Eared Cow Glass Inc,"1001 Huger St, Columbia, SC, 29201-3623",(803) 254-2444,www.oneearedcow.com,327212,Other Pressed and Blown Glass and Glassware Manufacturing,Potential Primary End Market,Glass,33.995242,-81.04386
77,"Pilkington North America, Inc.","1001 Hurricane St, Franklin, IN, 46131-1550",(317) 346-0621,www.pilkington.com,327211,Flat Glass Manufacturing,Potential Primary End Market,Glass,39.492227,-86.04867
78,"Specialty Seal Group, Inc.","1001 Lloyd Ave, Latrobe, PA, 15650-2644",(724) 539-1626,www.specialtysealgroup.com,327212,Other Pressed and Blown Glass and Glassware Manufacturing,Potential Primary End Market,Glass,40.298238,-79.39252
79,Mason Jars Company,"1001 State St Ste 1220, Erie, PA, 16501-1833",(814) 739-2296,www.masonjars.com,327213,Glass Container Manufacturing,Potential Primary End Market,Glass,42.125369,-80.08244
80,Saxet Surface Science,"1001 Sunset Canyon Dr S, Dripping Springs, TX, 78620-4271", ,www.saxetsurfacescience.com,327212,Other Pressed and Blown Glass and Glassware Manufacturing,Potential Primary End Market,Glass,30.194912,-98.01935
81,Jaedylans Antique Glass Limited Liability Company,"10010 Mill Stone Dr, Mill Creek, PA, 17060-9543", , ,327211,Flat Glass Manufacturing,Potential Primary End Market,Glass,40.442634,-77.92502
82,"Elite Fiber Optics, LLC","10029 Pacific Ave, Franklin Park, IL, 60131-1830",(630) 225-9454,www.elitefiberoptics.com,327212,Other Pressed and Blown Glass and Glassware Manufacturing,Potential Primary End Market,Glass,41.940169,-87.87684
83,B & H LLC,"1004 Morton St, Baltimore, MD, 21201-5411",(410) 800-4298,www.bhchimneys.com,327212,Other Pressed and Blown Glass and Glassware Manufacturing,Potential Primary End Market,Glass,39.301202,-76.61666
84,Baoda Group,"1004 W West Covina Pkwy # 189, West Covina, CA, 91790-2810",(408) 498-9595, ,327213,Glass Container Manufacturing,Potential Primary End Market,Glass,34.068557,-117.9313
85,GLN Enterprises,"10040 Karmont Ave, South Gate, CA, 90280-5417", ,www.glmenterprises.com,327211,Flat Glass Manufacturing,Potential Primary End Market,Glass,33.939166,-118.1662
86,Chickasaw Nation,"1005 N Country Club Rd, Ada, OK, 74820-2847",(580) 332-2796,www.chickasaw.net,327212,Other Pressed and Blown Glass and Glassware Manufacturing,Potential Primary End Market,Glass,34.786996,-96.65245
87,Glasforms,"10065 Donner Pass Rd, Truckee, CA, 96161-0409",(530) 587-8460, ,327212,Other Pressed and Blown Glass and Glassware Manufacturing,Potential Primary End Market,Glass,39.327887,-120.185
88,"H. I. S. C., Inc.","1009 Calle Recodo, San Clemente, CA, 92673-6237",(949) 492-8968,www.shopdepalma.com,327212,Other Pressed and Blown Glass and Glassware Manufacturing,Potential Primary End Market,Glass,33.452902,-117.599
89,Julia Gorzka Inc.,"1009 W Charter St, Tampa, FL, 33602-1001", , ,327212,Other Pressed and Blown Glass and Glassware Manufacturing,Potential Primary End Market,Glass,27.969213,-82.47384
90,Loretta EBY Hot Glass,"101 Concord Dr, Watkinsville, GA, 30677-2402",(706) 769-9703,www.lorettaeby.net,327212,Other Pressed and Blown Glass and Glassware Manufacturing,Potential Primary End Market,Glass,33.852147,-83.41746
91,"Edmund Optics, Inc.","101 E Gloucester Pike, Barrington, NJ, 08007-1331",(856) 547-3488,www.edmundoptics.com,327211,Flat Glass Manufacturing,Potential Primary End Market,Glass,39.867024,-75.04891
92,Libbey Inc.,"101 Grandview Heights Dr, Dane, WI, 53529-9501",(608) 849-2544,www.libbey.com,327212,Other Pressed and Blown Glass and Glassware Manufacturing,Potential Primary End Market,Glass,43.247697,-89.4942
93,Bayspec Inc.,"101 Hammond Ave, Fremont, CA, 94539-7468", , ,327212,Other Pressed and Blown Glass and Glassware Manufacturing,Potential Primary End Market,Glass,37.47614,-121.9224
94,D&B US Fictitious Company 346,"101 John F Kennedy Pkwy, Short Hills, NJ, 07078-2716",(610) 555-5555, ,327211,Flat Glass Manufacturing,Potential Primary End Market,Glass,40.741961,-74.36199
95,D&B US Fictitious Company 347,"101 John F Kennedy Pkwy, Short Hills, NJ, 07078-2716",(610) 555-5555, ,327213,Glass Container Manufacturing,Potential Primary End Market,Glass,40.741961,-74.36199
96,D&B US Fictitious Company 348,"101 John F Kennedy Pkwy, Short Hills, NJ, 07078-2716",(610) 555-5555, ,327212,Other Pressed and Blown Glass and Glassware Manufacturing,Potential Primary End Market,Glass,40.741961,-74.36199
97,D&B US Fictitious Company 349,"101 John F Kennedy Pkwy, Short Hills, NJ, 07078-2716",(610) 555-5555, ,327212,Other Pressed and Blown Glass and Glassware Manufacturing,Potential Primary End Market,Glass,40.741961,-74.36199
98,Goose Bay Hand Blown Glass,"101 S Front St, Townsend, MT, 59644-2501",(406) 266-4496,www.goosebayhandblownglass.com,327212,Other Pressed and Blown Glass and Glassware Manufacturing,Potential Primary End Market,Glass,46.319088,-111.5212
99,Classical Homeopathy,"101 S Kendrick Ave, Gillette, WY, 82716-3844",(307) 670-9054,www.classicalhomeopathy.business.site,327213,Glass Container Manufacturing,Potential Primary End Market,Glass,44.293767,-105.5025
100,Haze Glass Creations,"101 State St, Rutland, VT, 05701-2983",(802) 773-6262, ,327212,Other Pressed and Blown Glass and Glassware Manufacturing,Potential Primary End Market,Glass,43.609186,-72.98289
101,"AGC Flat Glass North America, Inc.","101 Total Solutions Way, Alabaster, AL, 35007-4817",(205) 685-1000,www.agc.com,327211,Flat Glass Manufacturing,Potential Primary End Market,Glass,33.189775,-86.78917
102,"AGC Automotive Alabama, Inc.","101 Total Solutions Way, Alabaster, AL, 35007-4817",(205) 685-1000, ,327211,Flat Glass Manufacturing,Potential Primary End Market,Glass,33.189775,-86.78917
103,General Glass International Corp.,"101 Venture Way, Secaucus, NJ, 07094-1825",(201) 553-1850,www.generalglass.com,327211,Flat Glass Manufacturing,Potential Primary End Market,Glass,40.775384,-74.07952
104,Comtex,"1010 Fleming Dr, Seguin, TX, 78155-3426",(830) 379-2010,www.comtex-nj.com,327212,Other Pressed and Blown Glass and Glassware Manufacturing,Potential Primary End Market,Glass,29.579553,-97.98672
105,Woodland Glass Arts Studio Inc,"1010 S Cody St, Lakewood, CO, 80226-4224",(303) 984-2231,www.penfoundglass.com,327212,Other Pressed and Blown Glass and Glassware Manufacturing,Potential Primary End Market,Glass,39.698707,-105.0917
106,Rodney Hackett,"1012 25th Ave SW, Great Falls, MT, 59404-3612",(406) 761-3710, ,327212,Other Pressed and Blown Glass and Glassware Manufacturing,Potential Primary End Market,Glass,47.48104,-111.3301
107,Furniture City Glass Corporation,"1012 Ken O Sha Ind Park, Grand Rapids, MI, 49508-8216",(616) 784-5500, ,327211,Flat Glass Manufacturing,Potential Primary End Market,Glass,42.906926,-85.64072
108,Bella Forte Glass Studio LLC,"1012 NW 81st St, Oklahoma City, OK, 73114-1908",(405) 659-6169,www.bellaforteglass.com,327212,Other Pressed and Blown Glass and Glassware Manufacturing,Potential Primary End Market,Glass,35.553805,-97.5304
109,Saint-Gobain Corporation,"10131 Governor Lane Blvd, Williamsport, MD, 21795-4027",(301) 223-1171,www.saint-gobain-northamerica.com,327213,Glass Container Manufacturing,Potential Primary End Market,Glass,39.589621,-77.8084
110,Edwards Alum Co,"1016 7th St, Pleasant Grove, AL, 35127-1572", , ,327213,Glass Container Manufacturing,Potential Primary End Market,Glass,33.491041,-86.98448
111,"Baralan Usa, Inc.","1016 E Burgrove St, Carson, CA, 90746-3514",(310) 635-0211,www.baralanusa.com,327213,Glass Container Manufacturing,Potential Primary End Market,Glass,33.845009,-118.2548
112,Salt Lake City Chimes Plus,"1017 W Eclipse Way, Salt Lake City, UT, 84116-2126",(801) 322-1407,www.saltlakecitychimesplus.com,327212,Other Pressed and Blown Glass and Glassware Manufacturing,Potential Primary End Market,Glass,40.790217,-111.9199
113,Dlubak Glass Company,"1018 W 14th St, Okmulgee, OK, 74447-5600",(918) 752-0226,www.dlubak.com,327212,Other Pressed and Blown Glass and Glassware Manufacturing,Potential Primary End Market,Glass,35.614596,-95.98377
114,"Fiberglass and Composites Technology, LLC","10180 Southwest Blvd, Wichita, KS, 67215-8742",(316) 529-1356,www.a-fact.org,327212,Other Pressed and Blown Glass and Glassware Manufacturing,Potential Primary End Market,Glass,37.626538,-97.45982
115,Ardagh Glass Inc.,"10194 Crsspint Blvd Ste 4, Indianapolis, IN, 46256",(317) 558-1002,www.ardaghgroup.com,327213,Glass Container Manufacturing,Potential Primary End Market,Glass,39.93781,-86.02417
116,"Mountain Blown Glass, Inc.","101a W Elkhorn Ave, Estes Park, CO, 80517",(970) 577-0880,www.mountainblownglass.net,327212,Other Pressed and Blown Glass and Glassware Manufacturing,Potential Primary End Market,Glass,40.37617,-105.5239
117,Mark Russell,"102 E Grove St, Greeneville, TN, 37745-5006",(423) 638-6547, ,327212,Other Pressed and Blown Glass and Glassware Manufacturing,Potential Primary End Market,Glass,36.16774,-82.82276
118,"Pilkington North America, Inc.","102 Industry Dr, Versailles, KY, 40383-1526",(859) 873-2914,www.pilkington.com,327211,Flat Glass Manufacturing,Potential Primary End Market,Glass,38.053611,-84.71625
119,"Optisource, LLC","102 Mountain Park Pl NW D, Albuquerque, NM, 87114-2292",(505) 792-0277,www.optisourcellc.net,327212,Other Pressed and Blown Glass and Glassware Manufacturing,Potential Primary End Market,Glass,35.194706,-106.6078
120,Low Price Auto Glass,"1020 Northville St # 100, Houston, TX, 77038-3124",(281) 448-8080, ,327211,Flat Glass Manufacturing,Potential Primary End Market,Glass,29.908732,-95.41997
121,"Clearedge Solutions, Inc.","1020 Rock Ave, San Jose, CA, 95131-1610",(408) 262-2800, ,327212,Other Pressed and Blown Glass and Glassware Manufacturing,Potential Primary End Market,Glass,37.391958,-121.9052
122,Uti Global Inc.,"1021 S Wolfe Rd Ste 200, Sunnyvale, CA, 94086-8876",(530) 902-5081, ,327211,Flat Glass Manufacturing,Potential Primary End Market,Glass,37.35503,-122.0142
123,Pacific Interconnection LLC,"1022 N 33rd Pl, Renton, WA, 98056-1932",(425) 277-9527,www.pacificinterco.com,327212,Other Pressed and Blown Glass and Glassware Manufacturing,Potential Primary End Market,Glass,47.52141,-122.205
124,Worldwide Glass Resources Inc.,"1022 Spruce St, Vineland, NJ, 08360-2841",(856) 205-1508,www.wwglassresource.com,327213,Glass Container Manufacturing,Potential Primary End Market,Glass,39.49694,-75.01263
125,"Lewis, John Glass Studio","10229 Pearmain St, Oakland, CA, 94603-3023",(510) 635-4607,www.johnlewisglass.com,327212,Other Pressed and Blown Glass and Glassware Manufacturing,Potential Primary End Market,Glass,37.735958,-122.1783
126,Cardinal Glass Industries Inc,"1024 E Madison St, Spring Green, WI, 53588-8038",(608) 588-7009,www.cardinalcorp.com,327211,Flat Glass Manufacturing,Potential Primary End Market,Glass,43.1752,-90.0647
127,Valley Construction Products and Glass Service LLC,"1024 Talisman Dr, Martinsburg, WV, 25403-2188", , ,327211,Flat Glass Manufacturing,Potential Primary End Market,Glass,39.523791,-77.98693
128,Mazomanie Glass Works,"10250 E Mathewson Rd, Mazomanie, WI, 53560-9790",(608) 795-2336, ,327212,Other Pressed and Blown Glass and Glassware Manufacturing,Potential Primary End Market,Glass,43.191331,-89.77609
129,Convivial Production Inc,"1026 Hickory St, Kansas City, MO, 64101-1315",(808) 283-6041,www.convivialproduction.com,327212,Other Pressed and Blown Glass and Glassware Manufacturing,Potential Primary End Market,Glass,39.102324,-94.60142
130,"V Eye P Eyewear & Optical, LLC","10260 SW 56th St, Miami, FL, 33165-7015",(305) 666-2365, ,327212,Other Pressed and Blown Glass and Glassware Manufacturing,Potential Primary End Market,Glass,25.715663,-80.35985
131,Corning Incorporated,"103 Canada Rd, Painted Post, NY, 14870-9153", ,www.corning.com,327212,Other Pressed and Blown Glass and Glassware Manufacturing,Potential Primary End Market,Glass,42.160577,-77.1058
132,Fair Haven Glass,"103 Clinton Ave, New Haven, CT, 06513-3102",(203) 773-3040,www.exacthosting.com,327212,Other Pressed and Blown Glass and Glassware Manufacturing,Potential Primary End Market,Glass,41.312239,-72.89112
133,Knight,"103 E Locust St, Lafayette, TN, 37083-1219", , ,327213,Glass Container Manufacturing,Potential Primary End Market,Glass,36.520945,-86.02527
134,Certainteed LLC,"103 Funston Rd, Kansas City, KS, 66115-1309",(913) 342-6624,www.certainteed.com,327213,Glass Container Manufacturing,Potential Primary End Market,Glass,39.142956,-94.613
135,Erco Hic Corp,"103 Gauldy Ave, Staten Island, NY, 10314-7240",(347) 933-1148, ,327212,Other Pressed and Blown Glass and Glassware Manufacturing,Potential Primary End Market,Glass,40.618793,-74.16689
136,"Pilkington North America, Inc.","10315 Airport Rd 101, Everett, WA, 98204-3539",(425) 438-8442,www.pilkington.com,327211,Flat Glass Manufacturing,Potential Primary End Market,Glass,47.904298,-122.2691
137,"Olympus Glazing & Aluminum, LLC","10320 Balls Ford Rd, Manassas, VA, 20109-2618", , ,327211,Flat Glass Manufacturing,Potential Primary End Market,Glass,38.802353,-77.50604
138,Kayk Creations LLC,"1034 Lopez St, Winnie, TX, 77665-7907",(346) 383-0542, ,327212,Other Pressed and Blown Glass and Glassware Manufacturing,Potential Primary End Market,Glass,29.801416,-94.36577
139,Liscot Enterprises (inc),"10371 Rochester Ave, Los Angeles, CA, 90024-5362",(310) 275-9389,www.liscotenterprises.net,327212,Other Pressed and Blown Glass and Glassware Manufacturing,Potential Primary End Market,Glass,34.063016,-118.4254
140,Velux America LLC,"104 Ben Casey Dr, Fort Mill, SC, 29708-6478",(803) 548-3589,www.veluxusa.com,327211,Flat Glass Manufacturing,Potential Primary End Market,Glass,35.042984,-80.98688
141,White Elk Vision & Glass,"104 Cir Dr, Glen Haven, CO, 80532",(970) 577-1546,www.whiteelks.com,327212,Other Pressed and Blown Glass and Glassware Manufacturing,Potential Primary End Market,Glass,40.4526,-105.4497
142,Worldwide Custom Decorators Inc,"104 Corporate Park Dr, Henderson, NV, 89074-8725",(860) 410-9980,www.progressiveglass.com,327212,Other Pressed and Blown Glass and Glassware Manufacturing,Potential Primary End Market,Glass,36.036269,-115.0344
143,Timeless Reflections,"104 E Kansas St, Bureau, IL, 61315-1005",(815) 663-8148,www.antiqued-mirrors.com,327211,Flat Glass Manufacturing,Potential Primary End Market,Glass,41.2891,-89.3663
144,Eyezoom Optics Inc.,"10413 Rush St, South El Monte, CA, 91733-3343",(626) 350-8878,www.eyezoomoptics.com,327212,Other Pressed and Blown Glass and Glassware Manufacturing,Potential Primary End Market,Glass,34.051883,-118.0443
145,Shattered Illusions,"10420 SW View Ter, Portland, OR, 97224-4826",(503) 639-6344,www.shatteredillusionsglass.com,327212,Other Pressed and Blown Glass and Glassware Manufacturing,Potential Primary End Market,Glass,45.415956,-122.7839
146,Precious Details,"10421 NW 19th St, Pembroke Pines, FL, 33026-2326", , ,327212,Other Pressed and Blown Glass and Glassware Manufacturing,Potential Primary End Market,Glass,26.024477,-80.28598
147,Tiber Vision LLC,"10423 Old Hammond Hwy, Baton Rouge, LA, 70816-8264",(225) 923-0960, ,327211,Flat Glass Manufacturing,Potential Primary End Market,Glass,30.433451,-91.07057
148,Gripping Eyewear Inc.,"10430 S Kirkwood Rd 150, Houston, TX, 77099-5001",(281) 568-0500,www.grippingeyewear.com,327211,Flat Glass Manufacturing,Potential Primary End Market,Glass,29.662439,-95.58584
149,Anchor Glass Container Corporation,"1044 Booth Rd, Warner Robins, GA, 31088-5299",(478) 922-4271,www.anchorglass.com,327213,Glass Container Manufacturing,Potential Primary End Market,Glass,32.589803,-83.59994
150,"Pilkington North America, Inc.","1048 Wellington Ave, Cranston, RI, 02910-3722", ,www.pilkington.com,327211,Flat Glass Manufacturing,Potential Primary End Market,Glass,41.760961,-71.42913
151,John P Gilvey Studio Art Glass Ltd,"1049 Route 216 Ste 12570, Poughquag, NY, 12570-5618",(845) 724-5088, ,327212,Other Pressed and Blown Glass and Glassware Manufacturing,Potential Primary End Market,Glass,41.600414,-73.68298
152,"Genus, Kena-Marie","105 E H St APT H, Ontario, CA, 91764-3236",(562) 528-9619, ,327211,Flat Glass Manufacturing,Potential Primary End Market,Glass,34.07251,-117.6506
153,Flat Out Glass LLC,"105 Versailles Ln, Easley, SC, 29642-1517", ,www.flatoutglass.us,327211,Flat Glass Manufacturing,Potential Primary End Market,Glass,34.816007,-82.54726
154,"All American Glass Distributors, Inc.","10508 Boyer Blvd, Austin, TX, 78758-4936",(512) 339-7986,www.allamericanglass.com,327211,Flat Glass Manufacturing,Potential Primary End Market,Glass,30.383573,-97.71261
155,"Tencate Advanced Armor Usa, Inc.","1051 O Neill Dr, Hebron, OH, 43025-9409",(740) 928-0326, ,327212,Other Pressed and Blown Glass and Glassware Manufacturing,Potential Primary End Market,Glass,39.975173,-82.47297
156,"Tencate Advanced Armor Usa, Inc.","1051 Oneill Dr, Hebron, OH, 43025",(740) 928-0326,www.tencate.com,327212,Other Pressed and Blown Glass and Glassware Manufacturing,Potential Primary End Market,Glass,39.975173,-82.47297
157,Merrymans Enterprise Inc,"10545 James St, Zeeland, MI, 49464-9101",(616) 748-0038,www.merrymansconveyors.com,327211,Flat Glass Manufacturing,Potential Primary End Market,Glass,42.812408,-86.04198
158,Heavenly Glass,"106 Albernathy St, Liverpool, NY, 13088-6414",(315) 706-0250, ,327212,Other Pressed and Blown Glass and Glassware Manufacturing,Potential Primary End Market,Glass,43.094582,-76.17798
159,Rocky Mountain Instrument Co.,"106 Laser Dr, Lafayette, CO, 80026-2930",(303) 664-5000,www.rmico.com,327212,Other Pressed and Blown Glass and Glassware Manufacturing,Potential Primary End Market,Glass,39.985098,-105.0903
160,Soul Glass,"106 Washington St, Weaverville, CA, 96093",(530) 623-3249,www.hopkoartglass.com,327212,Other Pressed and Blown Glass and Glassware Manufacturing,Potential Primary End Market,Glass,40.727559,-122.936
161,Carter's Stained Glass,"1060 Jackson Cabin Rd, Kingston Springs, TN, 37082-5134",(615) 952-3219,www.cartersstainedglass.com,327211,Flat Glass Manufacturing,Potential Primary End Market,Glass,36.061009,-87.14223
162,Desai's Design Craft,"1060 Wellington Rd, San Dimas, CA, 91773-3705", , ,327212,Other Pressed and Blown Glass and Glassware Manufacturing,Potential Primary End Market,Glass,34.091041,-117.8418
163,Rocky Mountain Bottle Company LLC,"10619 W 50th Ave, Wheat Ridge, CO, 80033-6717",(303) 425-7965, ,327213,Glass Container Manufacturing,Potential Primary End Market,Glass,39.787447,-105.1164
164,"Sunport Industries, LLC","1063 Hope St 1, Stamford, CT, 06907-2109",(203) 321-8404, ,327211,Flat Glass Manufacturing,Potential Primary End Market,Glass,41.094952,-73.51877
165,Tempered Custom Shower Glass Installations LLC,"10700 Beach Blvd, Jacksonville, FL, 32245-8000", , ,327211,Flat Glass Manufacturing,Potential Primary End Market,Glass,30.286644,-81.53741
166,Ballistiglass LLC,"10726 NW 80th Cir, Parkland, FL, 33076-4751",(954) 612-6640,www.ballistiglass.com,327211,Flat Glass Manufacturing,Potential Primary End Market,Glass,26.330216,-80.26976
167,Icarian Glass Works of California,"1075 Capistrano CT, San Luis Obispo, CA, 93405-6153", , ,327212,Other Pressed and Blown Glass and Glassware Manufacturing,Potential Primary End Market,Glass,35.26134,-120.703
168,"Becton, Dickinson and Company","10765 Trenton Ave, Saint Louis, MO, 63132-1025",(314) 423-0300,www.bd.com,327212,Other Pressed and Blown Glass and Glassware Manufacturing,Potential Primary End Market,Glass,38.690759,-90.39843
169,Accu-Glass LLC,"10765 Trenton Ave, Saint Louis, MO, 63132-1025",(314) 423-0300,www.accu-glass.com,327212,Other Pressed and Blown Glass and Glassware Manufacturing,Potential Primary End Market,Glass,38.690759,-90.39843
170,Certainteed LLC,"1077 Pleasant St, Norwood, MA, 02062-4609",(781) 278-0478,www.certainteed.com,327213,Glass Container Manufacturing,Potential Primary End Market,Glass,42.165146,-71.20784
171,"Hearthmark, LLC","10777 Sunset Office Dr # 40, Saint Louis, MO, 63127-1052",(314) 775-4648,www.freshpreserving.com,327213,Glass Container Manufacturing,Potential Primary End Market,Glass,38.556895,-90.40962
172,Raineys Candles,"1078 Hodge Watson Rd, Calhoun, LA, 71225-8511",(318) 450-0487, ,327212,Other Pressed and Blown Glass and Glassware Manufacturing,Potential Primary End Market,Glass,32.540069,-92.30416
173,Windwood Glass,"108 Huntleigh Ave, Fayetteville, NY, 13066-2213",(315) 637-9645, ,327212,Other Pressed and Blown Glass and Glassware Manufacturing,Potential Primary End Market,Glass,43.030224,-75.99676
174,R J Glasswork,"108 SW Frenwood Way, Beaverton, OR, 97005-0739",(503) 643-2789, ,327212,Other Pressed and Blown Glass and Glassware Manufacturing,Potential Primary End Market,Glass,45.518958,-122.8088
175,Technical Glass Service Inc,"108 W 31st St, Boise, ID, 83714-6605",(208) 426-8775,www.techglass.biz,327212,Other Pressed and Blown Glass and Glassware Manufacturing,Potential Primary End Market,Glass,43.620045,-116.2373
176,"Saull, Barbara Art Glass & Designs","10814 Linda Vista Dr, Lakewood, CO, 80215-1238",(303) 233-0866, ,327212,Other Pressed and Blown Glass and Glassware Manufacturing,Potential Primary End Market,Glass,39.752262,-105.1194
177,Saratoga Concepts Corp,"1082 Raymond Rd, Ballston Spa, NY, 12020-3711",(518) 885-5048, ,327212,Other Pressed and Blown Glass and Glassware Manufacturing,Potential Primary End Market,Glass,42.977852,-73.81403
178,Owens-Brockway Glass Container Inc.,"1082 Route 28, Brookville, PA, 15825-7200",(814) 849-4265,www.o-i.com,327213,Glass Container Manufacturing,Potential Primary End Market,Glass,41.167313,-79.04615
179,S & D Vases,"1083 Consolidated Rd, Elberton, GA, 30635-5324", , ,327212,Other Pressed and Blown Glass and Glassware Manufacturing,Potential Primary End Market,Glass,34.058221,-82.67107
180,Klarity Optical 2020 Inc,"1083 Flatbush Ave, Brooklyn, NY, 11226-6118",(718) 282-6700, ,327211,Flat Glass Manufacturing,Potential Primary End Market,Glass,40.644255,-73.95789
181,Sky Glass Inc.,"10835 Shady Trl, Dallas, TX, 75220-1305",(972) 807-9616,www.skyglassaluminum.com,327211,Flat Glass Manufacturing,Potential Primary End Market,Glass,32.876575,-96.89028
182,Blodgett Glass,"1086 Hygeia Ave, Encinitas, CA, 92024-1708",(760) 942-2002,www.blodgettglass.com,327212,Other Pressed and Blown Glass and Glassware Manufacturing,Potential Primary End Market,Glass,33.068638,-117.2997
183,Xpress Detail and Accessories,"109 N Mulberry St, Dickson, TN, 37055-1937",(615) 740-1264, ,327211,Flat Glass Manufacturing,Potential Primary End Market,Glass,36.076865,-87.3892
184,"Simon Pearce U.S., Inc.","109 Park Rd, Windsor, VT, 05089-4440",(802) 674-6280,www.simonpearce.com,327212,Other Pressed and Blown Glass and Glassware Manufacturing,Potential Primary End Market,Glass,43.515901,-72.40139
185,James Topic,"1090 S Warsaw St, Nauvoo, IL, 62354-1334",(217) 453-2764, ,327213,Glass Container Manufacturing,Potential Primary End Market,Glass,40.537637,-91.37582
186,Omaha Glass Company,"10918 J St, Omaha, NE, 68137-1214",(402) 398-9012,www.omahaglassco.com,327211,Flat Glass Manufacturing,Potential Primary End Market,Glass,41.21434,-96.0831
187,Drug Plastics & Glass,"10942 Woodland Dr N, Champlin, MN, 55316-3054",(763) 422-9620, ,327213,Glass Container Manufacturing,Potential Primary End Market,Glass,45.155048,-93.41899
188,Clear View Mobile Inc,"10952 Calistoga Spgs, Las Vegas, NV, 89144-1438",(702) 672-2774,www.clearviewmobile.com,327211,Flat Glass Manufacturing,Potential Primary End Market,Glass,36.178198,-115.3356
189,Crest Studios,"1096 VT Route 30, Townshend, VT, 05353-9725",(802) 365-4200,www.dugrenier.com,327212,Other Pressed and Blown Glass and Glassware Manufacturing,Potential Primary End Market,Glass,43.033394,-72.66386
190,"Long Island Storefronts, Inc.","11 Barnes Rd, Moriches, NY, 11955-1306",(631) 803-8346,www.longislandglassandstorefronts.com,327211,Flat Glass Manufacturing,Potential Primary End Market,Glass,40.819341,-72.8368
191,Meuse & Berglund,"11 Cannon Hill Ave, Groveland, MA, 01834-1824",(978) 372-8842, ,327211,Flat Glass Manufacturing,Potential Primary End Market,Glass,42.762643,-71.02212
192,Guild Optical Associates Inc,"11 Columbia Dr Unit 13, Amherst, NH, 03031-2317",(603) 889-6247,www.guildoptics.com,327211,Flat Glass Manufacturing,Potential Primary End Market,Glass,42.807636,-71.58169
193,Etchings Etc,"11 E Howard St, Bel Air, MD, 21014-2847",(410) 893-6571, ,327212,Other Pressed and Blown Glass and Glassware Manufacturing,Potential Primary End Market,Glass,39.543524,-76.35789
194,Glass Doctor of Staten Island,"11 Morningstar Rd, Staten Island, NY, 10303-2800",(718) 720-9117, ,327212,Other Pressed and Blown Glass and Glassware Manufacturing,Potential Primary End Market,Glass,40.637588,-74.14483
195,West Rock Art Glass Inc,"11 Sycamore Way Ste 106, Branford, CT, 06405-6553", ,www.gandelmanglass.com,327212,Other Pressed and Blown Glass and Glassware Manufacturing,Potential Primary End Market,Glass,41.299974,-72.75323
196,Air Co Jal Windows & Doors,"11 Virginia Rd, White Plains, NY, 10603-2221",(914) 686-2360, ,327211,Flat Glass Manufacturing,Potential Primary End Market,Glass,41.054584,-73.76924
197,"Biolitec, Inc.","110 E 42nd St Rm 1800, New York, NY, 10017-5648",(413) 525-0600, ,327212,Other Pressed and Blown Glass and Glassware Manufacturing,Potential Primary End Market,Glass,40.751924,-73.97729
198,Corporate Glass Blowing,"110 Gray Rd, Altamont, NY, 12009-5814",(518) 355-8689, ,327212,Other Pressed and Blown Glass and Glassware Manufacturing,Potential Primary End Market,Glass,42.736492,-74.065
199,"Displays & Optical Technologies, Inc.","110 Market St, Georgetown, TX, 78626-3698",(512) 246-6400,www.doti-optics.com,327212,Other Pressed and Blown Glass and Glassware Manufacturing,Potential Primary End Market,Glass,30.693268,-97.65079
200,Be Dazzled,"110 Queen Elizabeth Dr, Cary, NC, 27513-3800",(919) 467-8314,www.bedazzledglass.com,327212,Other Pressed and Blown Glass and Glassware Manufacturing,Potential Primary End Market,Glass,35.796275,-78.7845
201,"Jennifer E. Smith, ND","110 Stockton St Ste J, Statesville, NC, 28677-5253",(704) 871-1229,www.jennifer-smith-nd.com,327213,Glass Container Manufacturing,Potential Primary End Market,Glass,35.788214,-80.88882
202,Cooper Eaton Io Lighting,"1100 Busch Pkwy, Buffalo Grove, IL, 60089-4549",(847) 735-7000, ,327212,Other Pressed and Blown Glass and Glassware Manufacturing,Potential Primary End Market,Glass,42.171681,-87.9359
203,Colin Bowen,"1100 Colony Point Cir # 322, Pembroke Pines, FL, 33026-2939", , ,327213,Glass Container Manufacturing,Potential Primary End Market,Glass,26.015145,-80.30176
204,Industrial Fiberglass Inc,"1100 Main St, Melrose Park, IL, 60160-4130",(708) 681-2707,www.industrialfiberglass.com,327212,Other Pressed and Blown Glass and Glassware Manufacturing,Potential Primary End Market,Glass,41.890154,-87.84706
205,Tarkio Glass Co,"1100 McNary St, Tarkio, MO, 64491-1447",(660) 736-4300,www.tarkioalumni.org,327211,Flat Glass Manufacturing,Potential Primary End Market,Glass,40.441113,-95.38873
206,"La Asset Holding Company, LLC","1100 Wilshire Blvd, Los Angeles, CA, 90017-1916", , ,327211,Flat Glass Manufacturing,Potential Primary End Market,Glass,34.052351,-118.2635
207,"Lippert Components Manufacturing, Inc.","1101 N Oak Dr, Plymouth, IN, 46563-3415",(574) 935-5122,www.lci1.com,327211,Flat Glass Manufacturing,Potential Primary End Market,Glass,41.349712,-86.32882
208,"Amcor Pharmaceutical Packaging Usa, LLC","1101 Wheaton Ave, Millville, NJ, 08332-2003",(856) 825-1400,www.yourpayrollsource.com,327212,Other Pressed and Blown Glass and Glassware Manufacturing,Potential Primary End Market,Glass,39.407553,-75.03374
209,Kelman Holdings Llc.,"1101 William Flynn Hwy, Glenshaw, PA, 15116-2637",(412) 486-9100, ,327213,Glass Container Manufacturing,Potential Primary End Market,Glass,40.520749,-79.95015
210,American Glass Containers LLC,"1101 William Flynn Hwy, Glenshaw, PA, 15116-2637",(412) 453-6451, ,327213,Glass Container Manufacturing,Potential Primary End Market,Glass,40.520749,-79.95015
211,Kelman Bottles LLC,"1101 William Flynn Hwy, Glenshaw, PA, 15116-2637",(412) 486-9100, ,327212,Other Pressed and Blown Glass and Glassware Manufacturing,Potential Primary End Market,Glass,40.520749,-79.95015
212,Olive Vinyl Products,"11010 US Highway 62, Leesburg, OH, 45135-9513",(937) 780-2222,www.olivevinylproducts.com,327211,Flat Glass Manufacturing,Potential Primary End Market,Glass,39.314864,-83.56773
213,Kaotic Kreations,"1102 N Market St, Shreveport, LA, 71107-6634",(318) 344-9270, ,327211,Flat Glass Manufacturing,Potential Primary End Market,Glass,32.529288,-93.76269
214,Adams Glass,"1102 S Spruce St, Spokane, WA, 99224-4380",(509) 838-2279,www.adamsglassworks.com,327212,Other Pressed and Blown Glass and Glassware Manufacturing,Potential Primary End Market,Glass,47.6456,-117.4461
215,Apollo Led) Co.,"1108 Bayhead Ln, Osprey, FL, 34229-9200",(941) 416-5944, ,327212,Other Pressed and Blown Glass and Glassware Manufacturing,Potential Primary End Market,Glass,27.211866,-82.49272
216,Vivid Leds Inc.,"1108 Dora Dr, Sellersburg, IN, 47172-8001", ,www.vividleds.us,327212,Other Pressed and Blown Glass and Glassware Manufacturing,Potential Primary End Market,Glass,38.385133,-85.77897
217,"Amcor Pharmaceutical Packaging Usa, LLC","1108 N State Road 3, Westport, IN, 47283-9513",(812) 591-2332, ,327213,Glass Container Manufacturing,Potential Primary End Market,Glass,39.189834,-85.57517
218,Nipro Pharmapackaging Americas Corp.,"1108 N State Road 3, Westport, IN, 47283-9513",(812) 591-2332,www.nipro-group.com,327213,Glass Container Manufacturing,Potential Primary End Market,Glass,39.189834,-85.57517
219,"Eye Health Northwest, P.C.","11086 SE Oak St, Milwaukie, OR, 97222-6692",(503) 525-2745,www.ehnpc.com,327212,Other Pressed and Blown Glass and Glassware Manufacturing,Potential Primary End Market,Glass,45.443535,-122.6295
220,"Aimpoint Associates, LLC","111 Byrd Ln, Dandridge, TN, 37725-6192",(865) 258-5781,www.aimpointassociates.com,327212,Other Pressed and Blown Glass and Glassware Manufacturing,Potential Primary End Market,Glass,36.021903,-83.46065
221,Connexion Technologies,"111 Corning Rd Ste 250, Cary, NC, 27518-9238",(919) 674-0036, ,327212,Other Pressed and Blown Glass and Glassware Manufacturing,Potential Primary End Market,Glass,35.753466,-78.73556
222,Converters of Texas LLC,"111 E Lampasas St, Ennis, TX, 75119-4859",(972) 875-5096, ,327212,Other Pressed and Blown Glass and Glassware Manufacturing,Potential Primary End Market,Glass,32.324781,-96.6225
223,Seventh Letter Art LLC,"111 N Dupont Cir Unit 148, Phoenix, AZ, 85034-1821",(231) 729-1657, ,327212,Other Pressed and Blown Glass and Glassware Manufacturing,Potential Primary End Market,Glass,33.449798,-111.9859
224,Art Glass Karg,"111 N Oliver St, Kechi, KS, 67067-9059",(316) 744-2442,www.rollinkarg.com,327212,Other Pressed and Blown Glass and Glassware Manufacturing,Potential Primary End Market,Glass,37.796133,-97.28077
225,Fabulous Fiber Optics,"111 Palm Cir, Richardson, TX, 75081-3737",(972) 896-8690, ,327212,Other Pressed and Blown Glass and Glassware Manufacturing,Potential Primary End Market,Glass,32.949008,-96.71465
226,"Delta Technologies, Limited","1110 Boise Ave, Loveland, CO, 80537-5059",(970) 278-1108,www.delta-technologies.com,327211,Flat Glass Manufacturing,Potential Primary End Market,Glass,40.40333,-105.0535
227,Lee Tate & Emmanuel Rocha,"11100 Sean Haggerty Dr # 203, El Paso, TX, 79934-3304",(915) 422-5983, ,327212,Other Pressed and Blown Glass and Glassware Manufacturing,Potential Primary End Market,Glass,31.933791,-106.4244
228,Bender Barware LLC,"1111 College Pl, Raleigh, NC, 27605-1847",(919) 915-3030, ,327212,Other Pressed and Blown Glass and Glassware Manufacturing,Potential Primary End Market,Glass,35.783972,-78.65107
229,"Chihuly, Inc","1111 NW 50th St, Seattle, WA, 98107-5120",(206) 781-8707,www.chihuly.com,327212,Other Pressed and Blown Glass and Glassware Manufacturing,Potential Primary End Market,Glass,47.66502,-122.3721
230,"Paddock Enterprises, LLC","11133 Eastman Park Dr, Windsor, CO, 80550-3398", ,www.o-i.com,327213,Glass Container Manufacturing,Potential Primary End Market,Glass,40.464988,-104.8524
231,CHI Resources,"1115 Horton Rd, Murphy, NC, 28906",(828) 835-7878, ,327213,Glass Container Manufacturing,Potential Primary End Market,Glass,35.243309,-84.06372
232,Anchor Hocking Consumer Glass Corporation,"1115 W 5th Ave, Lancaster, OH, 43130-2900",(740) 653-2527,www.anchorhockingbottles.com,327212,Other Pressed and Blown Glass and Glassware Manufacturing,Potential Primary End Market,Glass,39.719353,-82.62225
233,"Anchor Hocking, LLC","1115 W 5th Ave, Lancaster, OH, 43130-2900",(740) 687-2500,www.anchorhocking.com,327212,Other Pressed and Blown Glass and Glassware Manufacturing,Potential Primary End Market,Glass,39.719353,-82.62225
234,"Ghp II, LLC","1115 W 5th Ave, Lancaster, OH, 43130-2938",(740) 687-2500, ,327212,Other Pressed and Blown Glass and Glassware Manufacturing,Potential Primary End Market,Glass,39.719353,-82.62225
235,Hot Glass Ranch,"11180 Post Office Rd, Lucerne Valley, CA, 92356-7699",(760) 248-9644, ,327212,Other Pressed and Blown Glass and Glassware Manufacturing,Potential Primary End Market,Glass,34.456465,-116.9196
236,Fibercore Ltd,"11185 SE 282nd Ave, Boring, OR, 97009-7454",(831) 383-1028,www.fibercore.com,327212,Other Pressed and Blown Glass and Glassware Manufacturing,Potential Primary End Market,Glass,45.44205,-122.3729
237,Turners Classic Alley,"112 Blackberry Aly, Milford, PA, 18337-1710",(570) 296-2673, ,327211,Flat Glass Manufacturing,Potential Primary End Market,Glass,41.321032,-74.80389
238,"Frou Frou, Le","112 Gordon St, Chickamauga, GA, 30707-1453",(706) 375-7701,www.lefroufroushop.com,327211,Flat Glass Manufacturing,Potential Primary End Market,Glass,34.871982,-85.291
239,"K & N Enterprises, Inc","112 Sunny Ridge Ln, New Kensington, PA, 15068-1929",(724) 334-0698,www.kachurik.com,327212,Other Pressed and Blown Glass and Glassware Manufacturing,Potential Primary End Market,Glass,40.51673,-79.67158
240,"Thermo-Tech Windows, LLC","1120 38th Ave Ne, Sauk Rapids, MN, 56379-9672",(320) 529-4012,www.ttwindows.com,327211,Flat Glass Manufacturing,Potential Primary End Market,Glass,45.58477,-94.08356
241,Jurustic Park LLC,"112021 Old Sugarbush Ln, Marshfield, WI, 54449-5556",(715) 387-1653,www.jurustic.com,327212,Other Pressed and Blown Glass and Glassware Manufacturing,Potential Primary End Market,Glass,44.6435,-90.1467
242,Art Glass Boise,"1124 W Front St, Boise, ID, 83702-6951",(208) 345-1825,www.boiseartglass.com,327212,Other Pressed and Blown Glass and Glassware Manufacturing,Potential Primary End Market,Glass,43.616138,-116.2088
243,"Beach Glass Designs, Inc.","1125 Highcliff CT, Virginia Beach, VA, 23454-5773",(757) 650-7604, ,327212,Other Pressed and Blown Glass and Glassware Manufacturing,Potential Primary End Market,Glass,36.778684,-75.99562
244,The I G Shop Inc,"1125 Lyndon St, Green Bay, WI, 54303-3843",(920) 337-9777, ,327211,Flat Glass Manufacturing,Potential Primary End Market,Glass,44.532839,-88.02459
245,"Venicio, Inc.","1125 W Mahalo Pl, Compton, CA, 90220-5444",(323) 707-5438,www.venicioglass.com,327211,Flat Glass Manufacturing,Potential Primary End Market,Glass,33.871352,-118.2427
246,"Starline Mfg., LLC","11262 Arba Pike, Fountain City, IN, 47341-9732",(765) 847-1306, ,327212,Other Pressed and Blown Glass and Glassware Manufacturing,Potential Primary End Market,Glass,39.992586,-84.86751
247,Orion Optics Vst,"113 S Baker St, Mount Vernon, WA, 98273-3201", , ,327212,Other Pressed and Blown Glass and Glassware Manufacturing,Potential Primary End Market,Glass,48.42114,-122.3435
248,"Jlb Glass, LLC","1130 Valley St Ste F, Colorado Springs, CO, 80915-2838",(719) 651-2173, ,327211,Flat Glass Manufacturing,Potential Primary End Market,Glass,38.847878,-104.7139
249,Cedar Shack,"11300 W 131st Pl, Cedar Lake, IN, 46303-9347",(219) 682-5531, ,327212,Other Pressed and Blown Glass and Glassware Manufacturing,Potential Primary End Market,Glass,41.380288,-87.47174
250,Richard Silver Studio,"11315 Hunnewell Ave, Sylmar, CA, 91342-7217",(818) 970-5307, ,327212,Other Pressed and Blown Glass and Glassware Manufacturing,Potential Primary End Market,Glass,34.275956,-118.3921
251,"Tempest Windows, Inc.","1133 McDonald Ave, Brooklyn, NY, 11230-3327",(718) 258-6400,www.tempest-windows.com,327211,Flat Glass Manufacturing,Potential Primary End Market,Glass,40.625774,-73.97616
252,The Furnace Inc,"11354 W 13th Ave Ste 6, Lakewood, CO, 80215-4435",(303) 274-0643,www.furnaceglassworks.com,327212,Other Pressed and Blown Glass and Glassware Manufacturing,Potential Primary End Market,Glass,39.736479,-105.1247
253,Jack Pine Glass Blowing,"11354 W 13th Ave Ste 6, Lakewood, CO, 80215-4435",(303) 274-0643,www.furnaceglassworks.com,327212,Other Pressed and Blown Glass and Glassware Manufacturing,Potential Primary End Market,Glass,39.736479,-105.1247
254,Alternative Healing Center,"1137 Van Voorhis Rd Ste 7, Morgantown, WV, 26505-3453",(304) 322-0472,www.thealternativehealingcenter.com,327213,Glass Container Manufacturing,Potential Primary End Market,Glass,39.65914,-79.9634
255,F I G Inc,"11381 Highway 62 W, Harrison, AR, 72601-8104",(870) 741-6334,www.gfiinc.us,327212,Other Pressed and Blown Glass and Glassware Manufacturing,Potential Primary End Market,Glass,36.291477,-93.22666
256,Tom Doner Studios,"114 Leonard Rd, Hilliards, PA, 16040-2208",(724) 791-2135,www.glass123.com,327212,Other Pressed and Blown Glass and Glassware Manufacturing,Potential Primary End Market,Glass,41.093996,-79.82261
257,Tacoma Glass Blowing Studio,"114 S 23rd St, Tacoma, WA, 98402-2903",(253) 383-3499,www.tacomaglassblowing.com,327212,Other Pressed and Blown Glass and Glassware Manufacturing,Potential Primary End Market,Glass,47.24113,-122.4346
258,Gerresheimer Glass Inc.,"114 Wamsutta Mill Rd, Morganton, NC, 28655-5551",(828) 433-5000,www.gerresheimer.com,327213,Glass Container Manufacturing,Potential Primary End Market,Glass,35.748852,-81.7087
259,Owens-Brockway Glass Container Inc.,"11405 Rojas Dr, El Paso, TX, 79936-6464",(915) 727-1858,www.o-i.com,327213,Glass Container Manufacturing,Potential Primary End Market,Glass,31.740091,-106.3185
260,"PMF Tech, Corp","11411 NW 74th Ter, Medley, FL, 33178-1579",(786) 636-7021, ,327213,Glass Container Manufacturing,Potential Primary End Market,Glass,25.841253,-80.38314
261,"North American Bullet Proof, Incorporated","1144 Guadalupe Dr, Cibolo, TX, 78108-3143",(210) 225-0982,www.nabulletproof.com,327211,Flat Glass Manufacturing,Potential Primary End Market,Glass,29.563933,-98.24239
262,"Allied Molded Products, LLC","1145 13th Ave E, Palmetto, FL, 34221-4167",(941) 723-3072,www.allied-molded.com,327212,Other Pressed and Blown Glass and Glassware Manufacturing,Potential Primary End Market,Glass,27.523255,-82.55111
263,Auspicious Branding Concepts LLC,"1149 Windy Willows Dr, Jacksonville, FL, 32225-5934",(904) 705-3036, ,327212,Other Pressed and Blown Glass and Glassware Manufacturing,Potential Primary End Market,Glass,30.342434,-81.47275
264,"Simon Pearce U.S., Inc.","115 Newbury St Ste 1, Boston, MA, 02116-2970",(617) 450-8388,www.simonpearce.com,327212,Other Pressed and Blown Glass and Glassware Manufacturing,Potential Primary End Market,Glass,42.351357,-71.07613
265,"Blue Ridge Alchemy, LLC","115 Sweeney St SE, Floyd, VA, 24091-2627",(540) 745-4901, ,327212,Other Pressed and Blown Glass and Glassware Manufacturing,Potential Primary End Market,Glass,36.914799,-80.31147
266,"Brunache Instrumental Optics, Inc.","1150 Chinquapin Ave, Carlsbad, CA, 92008-3543",(760) 729-7289, ,327212,Other Pressed and Blown Glass and Glassware Manufacturing,Potential Primary End Market,Glass,33.151628,-117.3321
267,Kiss The Artist LLC,"11519 Tribal Dr, Charlotte, NC, 28214-8959",(980) 333-7119, ,327212,Other Pressed and Blown Glass and Glassware Manufacturing,Potential Primary End Market,Glass,35.303148,-80.99423
268,"Palmetto Planters, LLC","1153 N Hartford St, Eaton, IN, 47338-8774",(765) 396-4446,www.palmettoplanters.com,327212,Other Pressed and Blown Glass and Glassware Manufacturing,Potential Primary End Market,Glass,40.350675,-85.35635
269,"Guardian Industries, LLC","11535 E Mountain View Ave, Kingsburg, CA, 93631-9233",(559) 891-8867,www.guardian.com,327211,Flat Glass Manufacturing,Potential Primary End Market,Glass,36.546746,-119.5816
270,Courts Bobby,"1154 James River Tpke, Milton, WV, 25541-9649",(304) 743-6079, ,327213,Glass Container Manufacturing,Potential Primary End Market,Glass,38.425869,-82.1257
271,A Life's Reflections,"11542 S Elizabeth St, Chicago, IL, 60643-5116", , ,327212,Other Pressed and Blown Glass and Glassware Manufacturing,Potential Primary End Market,Glass,41.683794,-87.65312
272,Quail Hollow Waters Company LLC,"1159 Highway 171, Graceville, FL, 32440-7019",(850) 326-0090, ,327213,Glass Container Manufacturing,Potential Primary End Market,Glass,30.968385,-85.53839
273,Icefire Glassworks,"116 E Gower St, Cannon Beach, OR, 97110-3026",(503) 436-2359,www.cbgallerygroup.com,327212,Other Pressed and Blown Glass and Glassware Manufacturing,Potential Primary End Market,Glass,45.890069,-123.9616
274,"Avian Technologies, LLC","116 Newport Rd Ste 4-6b, New London, NH, 03257-5416",(603) 526-2420,www.aviantechnologies.com,327212,Other Pressed and Blown Glass and Glassware Manufacturing,Potential Primary End Market,Glass,43.421859,-71.99636
275,General Electric Company,"116 W University Dr, Somerset, KY, 42503-2480",(606) 679-7341,www.ge.com,327212,Other Pressed and Blown Glass and Glassware Manufacturing,Potential Primary End Market,Glass,37.105676,-84.61498
276,Led Lumina USA LLC,"116 Wilbur Pl, Bohemia, NY, 11716-2402", ,www.ledluminausa.com,327212,Other Pressed and Blown Glass and Glassware Manufacturing,Potential Primary End Market,Glass,40.777842,-73.10479
277,Lucas Century,"1160 Buttonwood Ln, Sanibel, FL, 33957-7304",(239) 472-4496,www.lucascentury.com,327212,Other Pressed and Blown Glass and Glassware Manufacturing,Potential Primary End Market,Glass,26.449966,-82.02288
278,San Diego Dual Glaze,"1160 Pioneer Way Ste A, El Cajon, CA, 92020-1947",(619) 921-5457, ,327211,Flat Glass Manufacturing,Potential Primary End Market,Glass,32.811793,-116.9678
279,Chris Paulson,"1160 W 2nd Ave, Eugene, OR, 97402-4921",(541) 344-7393, ,327212,Other Pressed and Blown Glass and Glassware Manufacturing,Potential Primary End Market,Glass,44.057612,-123.1104
280,Pyrofuse,"1161 23rd St Ne, Salem, OR, 97301-1530",(503) 508-2246,www.pyrofuse.com,327212,Other Pressed and Blown Glass and Glassware Manufacturing,Potential Primary End Market,Glass,44.944824,-123.0061
281,"Custom Pack, Inc.","11621 Cardinal Cir, Garden Grove, CA, 92843-3814", ,www.custompackincorporated.com,327213,Glass Container Manufacturing,Potential Primary End Market,Glass,33.765658,-117.925
282,CFC Services Midwest LLC,"11639 Leonard, Nunica, MI, 49448-9433",(616) 570-5174,www.renaissancestainedglass.com,327211,Flat Glass Manufacturing,Potential Primary End Market,Glass,43.064704,-86.0775
283,Spectrum Coatings,"1165 Ring St, Deltona, FL, 32725-3615",(386) 789-6662,www.spectrum-coatings.com,327212,Other Pressed and Blown Glass and Glassware Manufacturing,Potential Primary End Market,Glass,28.914458,-81.24198
284,Tom Stoenner,"117 Burger Rd, Rhinebeck, NY, 12572-2364",(845) 876-6514,www.tomstoennerglass.com,327212,Other Pressed and Blown Glass and Glassware Manufacturing,Potential Primary End Market,Glass,41.917379,-73.88782
285,Yankee Glass Blower Inc,"117 Robbins Dr, Carlisle, MA, 01741-1719",(978) 369-7545,www.yankeeglassblower.com,327212,Other Pressed and Blown Glass and Glassware Manufacturing,Potential Primary End Market,Glass,42.509137,-71.35679
286,"Dal-Little Fabricating, Inc","11707 Putnam Ave, Cleveland, OH, 44105-5416",(216) 883-3323,www.dallittle.com,327212,Other Pressed and Blown Glass and Glassware Manufacturing,Potential Primary End Market,Glass,41.446658,-81.6019
287,"Vistamatic, L.L.C.","11713 NW 39th St, Coral Springs, FL, 33065-2511",(866) 466-9525,www.vistamaticgroup.com,327211,Flat Glass Manufacturing,Potential Primary End Market,Glass,26.278775,-80.2842
288,"Sterling Glass Contractors, Inc.","11723 Iacopelli CT, Sterling Heights, MI, 48312-2101", , ,327211,Flat Glass Manufacturing,Potential Primary End Market,Glass,42.573196,-83.00924
289,"Single Vision Solution, Inc.","118 Cass Ave, Mount Clemens, MI, 48043-2204",(586) 464-1522, ,327211,Flat Glass Manufacturing,Potential Primary End Market,Glass,42.597209,-82.88176
290,Donna Beth Jewelry & Crafts LLC,"1180 Brookwood Dr, Norton Shores, MI, 49441-5304",(231) 798-7741, ,327212,Other Pressed and Blown Glass and Glassware Manufacturing,Potential Primary End Market,Glass,43.167549,-86.27367
291,Sundown Liquidating Corp.,"1180 Hayes Industrial Dr, Marietta, GA, 30062-2427",(770) 514-8085,www.kingspan.com,327211,Flat Glass Manufacturing,Potential Primary End Market,Glass,33.978446,-84.54207
292,Idex Health & Science LLC,"1180 John St, West Henrietta, NY, 14586-9757",(585) 625-5000,www.idex-hs.com,327212,Other Pressed and Blown Glass and Glassware Manufacturing,Potential Primary End Market,Glass,43.06481,-77.67328
293,Dryco Skylights Inc,"11800 E Farm Rd 917, Mansfield, TX, 76063",(817) 477-3441,www.drycoskylights.com,327211,Flat Glass Manufacturing,Potential Primary End Market,Glass,32.5794,-97.1273
294,John's Crane Equipment Rental Company Inc,"11843 Missouri Bottom Rd, Hazelwood, MO, 63042-2439",(314) 731-1829, ,327211,Flat Glass Manufacturing,Potential Primary End Market,Glass,38.763716,-90.38959
295,Hou-Tex Newnom Inc.,"1185 Brittmoore Rd, Houston, TX, 77043-5003",(713) 777-0748,www.houtexglass.com,327211,Flat Glass Manufacturing,Potential Primary End Market,Glass,29.791005,-95.5699
296,Strattman Design,"119 Braintree St Ste 202, Allston, MA, 02134-1610",(617) 266-8821,www.strattman.com,327212,Other Pressed and Blown Glass and Glassware Manufacturing,Potential Primary End Market,Glass,42.356524,-71.13742
297,Tint America Inc,"1190 W Littleton Blvd, Littleton, CO, 80120-2202",(720) 878-3456, ,327211,Flat Glass Manufacturing,Potential Primary End Market,Glass,39.613142,-105.0019
298,American Grating,"1191 Center Point Dr A, Henderson, NV, 89074-7891",(702) 567-0303,www.americangrating.com,327212,Other Pressed and Blown Glass and Glassware Manufacturing,Potential Primary End Market,Glass,36.038989,-115.0395
299,Calendar Arts LLC,"1191 US Highway 1, Vero Beach, FL, 32960-5790",(407) 285-8139, ,327212,Other Pressed and Blown Glass and Glassware Manufacturing,Potential Primary End Market,Glass,27.623153,-80.38934
300,Sida Corporation,"11932 Clark St Ste 200, Arcadia, CA, 91006-6007",(626) 471-3559, ,327212,Other Pressed and Blown Glass and Glassware Manufacturing,Potential Primary End Market,Glass,34.099912,-118.001
301,Aluminex Inc,"11993 Magnolia Ave Ste H, Riverside, CA, 92503-4935",(951) 353-1101,www.aluminexinc.com,327211,Flat Glass Manufacturing,Potential Primary End Market,Glass,33.894238,-117.4928
302,Tri-State Glass & Mirror Inc,"11a Jocama Blvd, Old Bridge, NJ, 08857-3513",(732) 591-5545,www.rowleyautopro.com,327211,Flat Glass Manufacturing,Potential Primary End Market,Glass,40.377564,-74.30552
303,"Vogel Optics, LLC","12 Old Coram Rd, Shelton, CT, 06484-4257",(203) 925-9619, ,327212,Other Pressed and Blown Glass and Glassware Manufacturing,Potential Primary End Market,Glass,41.284881,-73.08563
304,"Optek Systems, Inc.","12 Pilgrim Rd, Greenville, SC, 29607-5701",(864) 272-2640,www.opteksystems.com,327212,Other Pressed and Blown Glass and Glassware Manufacturing,Potential Primary End Market,Glass,34.814416,-82.28653
305,"Custom Glass and Aluminum Co., Inc.","120 Lumber Ln Unit 4, Tewksbury, MA, 01876-1489",(978) 640-5800,www.jjphelan.com,327211,Flat Glass Manufacturing,Potential Primary End Market,Glass,42.61981,-71.1958
306,Wolfeartz Lavish Creations LLC,"120 Wisteria Blvd, Covington, GA, 30016-7204",(770) 750-4384, ,327212,Other Pressed and Blown Glass and Glassware Manufacturing,Potential Primary End Market,Glass,33.581292,-83.9476
307,"Amcor Pharmaceutical Packaging Usa, LLC","1200 N 10th St, Millville, NJ, 08332-2032",(856) 825-1400, ,327213,Glass Container Manufacturing,Potential Primary End Market,Glass,39.409921,-75.0256
308,Nipro Pharmapackaging Americas Corp.,"1200 N 10th St, Millville, NJ, 08332-2032",(856) 825-1400,www.nipro-group.com,327213,Glass Container Manufacturing,Potential Primary End Market,Glass,39.409921,-75.0256
309,Ball Foster Glass Container Co.,"1200 N Logan St, Lincoln, IL, 62656-1707", , ,327213,Glass Container Manufacturing,Potential Primary End Market,Glass,40.157264,-89.35506
310,"Superior Huntingdon Composites, LLC","1200 Susquehanna Ave, Huntingdon, PA, 16652-1950",(814) 641-8202,www.shcomposites.com,327212,Other Pressed and Blown Glass and Glassware Manufacturing,Potential Primary End Market,Glass,40.492222,-78.01896
311,Advanced Glassfiber Yarns LLC,"1200 Susquehanna Ave, Huntingdon, PA, 16652-1950",(814) 641-8000,www.shcomposites.com,327212,Other Pressed and Blown Glass and Glassware Manufacturing,Potential Primary End Market,Glass,40.492222,-78.01896
312,Guys Wise,"1200 W Main St, Norman, OK, 73069-6848",(405) 801-3339,www.gowiseguys.com,327211,Flat Glass Manufacturing,Potential Primary End Market,Glass,35.218412,-97.45946
313,"Trulite Glass & Aluminum Solutions, LLC","1201 E Highway 67, Alvarado, TX, 76009-6901", ,www.trulite.com,327211,Flat Glass Manufacturing,Potential Primary End Market,Glass,32.416299,-97.19255
314,"Spiritfire Creations, LLC","1201 McDowell Dr, Greensboro, NC, 27408-5214", ,www.spiritfirecreations.com,327211,Flat Glass Manufacturing,Potential Primary End Market,Glass,36.095508,-79.8391
315,"Chromaglass, Inc.","1201 Randall CT, Export, PA, 15632-8979",(724) 325-1437,www.chromaglass.net,327212,Other Pressed and Blown Glass and Glassware Manufacturing,Potential Primary End Market,Glass,40.396461,-79.61071
316,Bmf Custom,"12012 Roberts Rd, La Vista, NE, 68128-5500",(402) 659-1746,www.bmfcustom.com,327211,Flat Glass Manufacturing,Potential Primary End Market,Glass,41.168326,-96.10082
317,"Baralan Usa, Inc.","12019 89th Ave, Richmond Hill, NY, 11418-3235",(718) 849-5768,www.baralanusa.com,327213,Glass Container Manufacturing,Potential Primary End Market,Glass,40.697731,-73.82831
318,Lights.com,"1202 Avenue J Ste 2, Brooklyn, NY, 11230-3662",(646) 490-9826,www.lights.com,327212,Other Pressed and Blown Glass and Glassware Manufacturing,Potential Primary End Market,Glass,40.624862,-73.96397
319,"Pittsburgh Glass Works, LLC","1202 Maple Grove Rd, Duluth, MN, 55811-4523",(218) 733-0118,www.pgwglass.com,327211,Flat Glass Manufacturing,Potential Primary End Market,Glass,46.80754,-92.15336
320,"Marlowe Candle Company, LLC","1203 Sisterdale Rd, Boerne, TX, 78006-7700",(830) 324-6895,www.marlowecandlecompany.com,327212,Other Pressed and Blown Glass and Glassware Manufacturing,Potential Primary End Market,Glass,29.978579,-98.72175
321,"Riekes Distributing Company, Inc.","12035 Corporate Dr, Dallas, TX, 75228-8101", , ,327212,Other Pressed and Blown Glass and Glassware Manufacturing,Potential Primary End Market,Glass,32.859637,-96.66144
322,Optics Fast Inc.,"1204 Avenue U 1053, Brooklyn, NY, 11229-4107",(866) 216-3478,www.opticsfast.com,327212,Other Pressed and Blown Glass and Glassware Manufacturing,Potential Primary End Market,Glass,40.598414,-73.95989
323,Earthstar Glass,"12048 W Ridge Dr, Huntsville, AL, 35810-6110",(256) 859-0897,www.earthstarglass.com,327212,Other Pressed and Blown Glass and Glassware Manufacturing,Potential Primary End Market,Glass,34.841823,-86.61765
324,Mid Rivers Glassblowing Inc,"1205 Harvestowne Indus Dr, Saint Charles, MO, 63304-7304",(636) 939-9003,www.mid-rivers-glass-blowing.com,327213,Glass Container Manufacturing,Potential Primary End Market,Glass,38.738945,-90.60717
325,Indigenous,"1207 Ocean Front Walk, Venice, CA, 90291-3205",(310) 452-0684,www.nativeamericanworld.net,327212,Other Pressed and Blown Glass and Glassware Manufacturing,Potential Primary End Market,Glass,33.98882,-118.4753
326,Warum Studios LLC,"1208 Yale Ave, Billings, MT, 59102-1719",(406) 647-0301,www.thefirstripple.com,327212,Other Pressed and Blown Glass and Glassware Manufacturing,Potential Primary End Market,Glass,45.797903,-108.5466
327,Pierce GL Inc,"12100 Mosteller Rd # 500, Cincinnati, OH, 45241-6404",(513) 772-7202,www.daytonglassblock.com,327212,Other Pressed and Blown Glass and Glassware Manufacturing,Potential Primary End Market,Glass,39.295699,-84.42835
328,Near's Specialties,"12102 Linden Ln, Bowie, MD, 20715-2349",(301) 262-9154,www.timclarkson.com,327212,Other Pressed and Blown Glass and Glassware Manufacturing,Potential Primary End Market,Glass,38.965342,-76.75453
329,"M.A.D. Muse, LLC","12103 Hazel Valley Rd, Fayetteville, AR, 72701-3741",(479) 643-3185,www.terrastudios.com,327212,Other Pressed and Blown Glass and Glassware Manufacturing,Potential Primary End Market,Glass,35.94035,-93.97964
330,Sigma Scientific LLC,"12109 Highway 441 S, Micanopy, FL, 32667-5310",(352) 505-5793,www.sigmascientificllc.com,327213,Glass Container Manufacturing,Potential Primary End Market,Glass,29.543421,-82.31814
331,Cyber Fiber Optics Inc,"1211 Royal Oak Dr, Dunedin, FL, 34698-3114",(727) 559-2725, ,327212,Other Pressed and Blown Glass and Glassware Manufacturing,Potential Primary End Market,Glass,28.03453,-82.7703
332,Deborah Moore,"1211 S King St, Seattle, WA, 98144-2024",(206) 328-9274,www.deboramoore.com,327212,Other Pressed and Blown Glass and Glassware Manufacturing,Potential Primary End Market,Glass,47.598288,-122.3163
333,Virtue Flame Works,"12112 Nebel St, Rockville, MD, 20852-2612",(240) 221-0022,www.virtueflameworks.com,327212,Other Pressed and Blown Glass and Glassware Manufacturing,Potential Primary End Market,Glass,39.05177,-77.11013
334,Benjamin Moore Inc,"1213 S King St, Seattle, WA, 98144-2024",(206) 329-8607,www.benjaminmooreglass.com,327212,Other Pressed and Blown Glass and Glassware Manufacturing,Potential Primary End Market,Glass,47.598288,-122.3163
335,Baron Glassworks Inc,"1217 City Dr, Ann Arbor, MI, 48103-3402", ,www.baronglassworks.com,327212,Other Pressed and Blown Glass and Glassware Manufacturing,Potential Primary End Market,Glass,42.292548,-83.77664
336,Blue Sage Studios,"1218 N Western Ave, Oklahoma City, OK, 73106-6824",(405) 601-2583,www.bluesagestudios.com,327212,Other Pressed and Blown Glass and Glassware Manufacturing,Potential Primary End Market,Glass,35.480627,-97.52996
337,"Schott North America, Inc.","122 Charlton St, Southbridge, MA, 01550-1914",(508) 765-3300,www.us.schott.com,327212,Other Pressed and Blown Glass and Glassware Manufacturing,Potential Primary End Market,Glass,42.079883,-72.02591
338,"Schott North America, Inc.","122 Charlton St, Southbridge, MA, 01550-1914",(508) 765-9744,www.schott-ceran.com,327212,Other Pressed and Blown Glass and Glassware Manufacturing,Potential Primary End Market,Glass,42.079883,-72.02591
339,Angel Glass Lost,"122 Meeker St, Bowling Green, OH, 43402-2215",(419) 353-2831, ,327212,Other Pressed and Blown Glass and Glassware Manufacturing,Potential Primary End Market,Glass,41.375842,-83.65865
340,La Sal Mountains Studio,"122 Western Ave Ste 415, Lowell, MA, 01851-1433",(978) 551-1256, ,327212,Other Pressed and Blown Glass and Glassware Manufacturing,Potential Primary End Market,Glass,42.640344,-71.31835
341,Southland Construction & Glass LLC,"12228 Fernwood Dr W, Foley, AL, 36535-4829", , ,327211,Flat Glass Manufacturing,Potential Primary End Market,Glass,30.402979,-87.63215
342,Water Jug,"1224 Bandera Hwy, Kerrville, TX, 78028-9640",(830) 792-5111, ,327213,Glass Container Manufacturing,Potential Primary End Market,Glass,30.032773,-99.14351
343,Glass Horizons,"12255 Laurel Terrace Dr, Studio City, CA, 91604-3609",(818) 760-3733,www.glasshorizons.com,327211,Flat Glass Manufacturing,Potential Primary End Market,Glass,34.140647,-118.3995
344,Brickworks,"1226 Binning Rd, Milford, OH, 45150-9573",(513) 617-4148,www.cincinnatichimneyrepair.com,327212,Other Pressed and Blown Glass and Glassware Manufacturing,Potential Primary End Market,Glass,39.128983,-84.23427
345,The Tint Guys,"1229 S Oates St, Dothan, AL, 36301-3547",(334) 479-8723, ,327211,Flat Glass Manufacturing,Potential Primary End Market,Glass,31.208567,-85.39326
346,Ardagh Glass Inc.,"123 E McKinley St, Marion, IN, 46952-2271",(765) 662-1172,www.ardaghgroup.com,327213,Glass Container Manufacturing,Potential Primary End Market,Glass,40.571243,-85.65758
347,Emhart Glass Manufacturing Inc.,"123 Great Pond Dr, Windsor, CT, 06095-1569",(860) 298-7340,www.emhartglass.com,327213,Glass Container Manufacturing,Potential Primary End Market,Glass,41.874878,-72.71758
348,Fiberglass Tooling Inc,"1230 Casey Rd, Pahrump, NV, 89048-7217",(619) 504-5386, ,327211,Flat Glass Manufacturing,Potential Primary End Market,Glass,36.144563,-115.9889
349,Jampdx LLC,"1234 Ne Fremont St, Portland, OR, 97212-2265",(503) 880-7613,www.jampdx.com,327212,Other Pressed and Blown Glass and Glassware Manufacturing,Potential Primary End Market,Glass,45.548205,-122.6532
350,Extasy Tinting,"12374 Paseo Lindo Dr, El Paso, TX, 79928-5671", , ,327211,Flat Glass Manufacturing,Potential Primary End Market,Glass,31.737306,-106.2637
351,"View, Inc.","12380 Kirk Rd, Olive Branch, MS, 38654-8633",(662) 892-3415,www.view.com,327211,Flat Glass Manufacturing,Potential Primary End Market,Glass,34.984329,-89.76767
352,Hands On Glass Studio,"124 Crystal Ln, Corning, NY, 14830-1861",(607) 962-3044,www.handsonglass.com,327212,Other Pressed and Blown Glass and Glassware Manufacturing,Potential Primary End Market,Glass,42.157632,-77.06497
353,Feldco Enterprises Inc.,"12402 Circula Panorama, Santa Ana, CA, 92705-1364",(714) 602-2415,www.feldcointernational.com,327212,Other Pressed and Blown Glass and Glassware Manufacturing,Potential Primary End Market,Glass,33.783793,-117.7979
354,"Contour Industries, Inc.","125 Industrial Dr, Surgoinsville, TN, 37873-5145",(423) 345-2000,www.contourglass.com,327211,Flat Glass Manufacturing,Potential Primary End Market,Glass,36.47764,-82.81509
355,"Pilkington North America, Inc.","125 Kingsland Ave, Clifton, NJ, 07014-2032",(973) 470-5703,www.pilkington.com,327211,Flat Glass Manufacturing,Potential Primary End Market,Glass,40.822276,-74.12922
356,"Commscope, Inc. of North Carolina","125 Lulu Ln, Statesville, NC, 28625-1887", ,www.commscope.com,327212,Other Pressed and Blown Glass and Glassware Manufacturing,Potential Primary End Market,Glass,35.9783,-81.0098
357,Bittylab LLC,"125 Park Ave FL 25, New York, NY, 10017-5550",(646) 389-9496,www.bittylab.com,327213,Glass Container Manufacturing,Potential Primary End Market,Glass,40.751567,-73.97785
358,Just Glass & Mirror Inc,"1250 N Black Horse Pike, Williamstown, NJ, 08094-2834",(856) 728-8383,www.justglassandmirror.com,327211,Flat Glass Manufacturing,Potential Primary End Market,Glass,39.704397,-75.00769
359,"Charles Composites, LLC","1252 Ne 12th St, Okeechobee, FL, 34972-3073",(863) 357-2500, ,327212,Other Pressed and Blown Glass and Glassware Manufacturing,Potential Primary End Market,Glass,27.253645,-80.81574
360,"Lisec America, Inc.","12571 Oliver Ave S # 100, Burnsville, MN, 55337-6668", ,www.lisec.com,327211,Flat Glass Manufacturing,Potential Primary End Market,Glass,44.775257,-93.30853
361,Antique Crystal Glass and Porcelain Inc,"126 Ne 2nd St, Crystal River, FL, 34429-4114",(352) 220-2666, ,327211,Flat Glass Manufacturing,Potential Primary End Market,Glass,28.896084,-82.59135
362,Joyce Ferrini,"1264 Amstel Dr, Colorado Springs, CO, 80907-4002",(719) 598-6529, ,327212,Other Pressed and Blown Glass and Glassware Manufacturing,Potential Primary End Market,Glass,38.887118,-104.8458
363,"Pourmark, LLC","1265 McLean Blvd, Eugene, OR, 97405-1979",(541) 515-6265, ,327211,Flat Glass Manufacturing,Potential Primary End Market,Glass,44.025939,-123.1119
364,Pacific Light Concepts LLC,"1267 Willis St Ste 200, Redding, CA, 96001-0400",(714) 496-3653, ,327212,Other Pressed and Blown Glass and Glassware Manufacturing,Potential Primary End Market,Glass,40.584921,-122.4008
365,"Zered, Inc.","12717 20th Ave, College Point, NY, 11356-2387",(718) 353-7464,www.zeredinc.com,327211,Flat Glass Manufacturing,Potential Primary End Market,Glass,40.781716,-73.84113
366,Solomon Schlussel,"1272 50th St Ste 5, Brooklyn, NY, 11219-6510",(718) 438-2420, ,327212,Other Pressed and Blown Glass and Glassware Manufacturing,Potential Primary End Market,Glass,40.634739,-73.99324
367,"Pilkington North America, Inc.","12754 Richfield CT, Livonia, MI, 48150-5013", ,www.pilkington.com,327211,Flat Glass Manufacturing,Potential Primary End Market,Glass,42.375539,-83.41564
368,"Owens Corning Sales, LLC","1277 Feura Bush Rd, Feura Bush, NY, 12067-1719",(518) 475-3600,www.owenscorning.com,327212,Other Pressed and Blown Glass and Glassware Manufacturing,Potential Primary End Market,Glass,42.584098,-73.86734
369,Abrams Flat Glass,"128 Chapman Rd, Spartanburg, SC, 29303-2508",(864) 680-9406, ,327211,Flat Glass Manufacturing,Potential Primary End Market,Glass,35.001937,-81.91132
370,Four Chambers Studio LLC,"128 Ebbetts Pass Rd, Vallejo, CA, 94589-1937",(707) 319-9310,www.fourchambers.com,327212,Other Pressed and Blown Glass and Glassware Manufacturing,Potential Primary End Market,Glass,38.142343,-122.2577
371,"Electrolock, Inc.","128 Spartangreen Blvd, Duncan, SC, 29334-9424",(864) 486-8700,www.electrolock.com,327212,Other Pressed and Blown Glass and Glassware Manufacturing,Potential Primary End Market,Glass,34.916221,-82.10231
372,"Fujitsu Optical Components America, Inc.","1280 E Arques Ave, Sunnyvale, CA, 94085-5401",(408) 746-6000, ,327212,Other Pressed and Blown Glass and Glassware Manufacturing,Potential Primary End Market,Glass,37.380395,-121.9882
373,Gisele's Designs,"1283 Brave CT, Carol Stream, IL, 60188-9011",(630) 837-3361, ,327212,Other Pressed and Blown Glass and Glassware Manufacturing,Potential Primary End Market,Glass,41.936118,-88.16677
374,Kimdurla Inc.,"12841 Blmfeld St Unit 104, Studio City, CA, 91604",(818) 504-4041, ,327212,Other Pressed and Blown Glass and Glassware Manufacturing,Potential Primary End Market,Glass,34.149361,-118.4128
375,"Palmetto Scientific Glass Company, Inc","12849 Atomic Rd, Beech Island, SC, 29842-8979",(803) 279-9427, ,327213,Glass Container Manufacturing,Potential Primary End Market,Glass,33.4468,-81.892
376,"Sun Valley Skylights, Inc.","12884 Pierce St, Pacoima, CA, 91331-2524",(818) 686-0032,www.sunvalleyskylights.com,327211,Flat Glass Manufacturing,Potential Primary End Market,Glass,34.266223,-118.4146
377,Dr Tinto Inc,"129 Dove Cir, Royal Palm Beach, FL, 33411-1702", ,www.drtinto.com,327211,Flat Glass Manufacturing,Potential Primary End Market,Glass,26.703695,-80.21398
378,Topton Glass Works,"129 N Cherry St, Topton, PA, 19562-1402",(610) 641-8525, ,327212,Other Pressed and Blown Glass and Glassware Manufacturing,Potential Primary End Market,Glass,40.505551,-75.70353
379,Optima Ballistic Glass Corporation,"129 Perimeter Park Rd D, Knoxville, TN, 37922-2254",(865) 388-8868,www.optimaballistic.com,327211,Flat Glass Manufacturing,Potential Primary End Market,Glass,35.908882,-84.11215
380,Master Glass,"1290 Canada Rd, Bailey, MI, 49303-9792",(231) 834-8342, ,327211,Flat Glass Manufacturing,Potential Primary End Market,Glass,43.276132,-85.84975
381,"Hartung Glass Industries, Inc.","12900 Nicholson Rd, Farmers Branch, TX, 75234-9215",(972) 629-6890,www.hartung-glass.com,327211,Flat Glass Manufacturing,Potential Primary End Market,Glass,32.9215,-96.90774
382,"Sky TEC Home Services, LLC","13 Cypress Road Pass, Ocala, FL, 34472-3535",(352) 804-0424,www.skytechomeservicesllc.com,327211,Flat Glass Manufacturing,Potential Primary End Market,Glass,29.082573,-81.99707
383,Auto Glass Experts L.L.C.,"13 Trudy Way, Gaithersburg, MD, 20878-1147",(301) 652-7727, ,327211,Flat Glass Manufacturing,Potential Primary End Market,Glass,39.142638,-77.23671
384,Floral Hang-UPS,"13 Wallenberg Cir, Monsey, NY, 10952-2834",(845) 362-8545, ,327212,Other Pressed and Blown Glass and Glassware Manufacturing,Potential Primary End Market,Glass,41.116533,-74.09114
385,"Accuratus Optics Technology, LLC","130 Rockview Dr, Cheshire, CT, 06410-3636",(213) 344-9397, ,327212,Other Pressed and Blown Glass and Glassware Manufacturing,Potential Primary End Market,Glass,41.472649,-72.9225
386,"Custom Glass Solutions, LLC","130 W Jones Rd, Fostoria, OH, 44830-1968",(888) 486-2508,www.customglasssolutions.com,327211,Flat Glass Manufacturing,Potential Primary End Market,Glass,41.181433,-83.41531
387,Cardinal Lg Company,"1300 SW 44th Ave, Ocala, FL, 34474-8747",(352) 237-4410,www.cardinalcorp.com,327211,Flat Glass Manufacturing,Potential Primary End Market,Glass,29.17503,-82.19593
388,Oaxaca Structure Glass,"13005 Forest Glen Ln, Balch Springs, TX, 75180-4521",(972) 822-7700, ,327211,Flat Glass Manufacturing,Potential Primary End Market,Glass,32.697207,-96.61729
389,Kavalierglass of North America Inc.,"1301 Brummel Ave, Elk Grove Village, IL, 60007-2108",(847) 364-7303, ,327213,Glass Container Manufacturing,Potential Primary End Market,Glass,42.017329,-87.96718
390,Sooz Designz,"1303 Heather Brook Dr, Allen, TX, 75002-2761",(214) 649-2769,www.soozdesignz.com,327212,Other Pressed and Blown Glass and Glassware Manufacturing,Potential Primary End Market,Glass,33.077073,-96.64841
391,"Hearthmark, LLC","1303 S Batesville Rd, Greer, SC, 29650-4807",(765) 557-3000,www.freshpreserving.com,327213,Glass Container Manufacturing,Potential Primary End Market,Glass,34.865126,-82.2418
392,Flat Glass Distributor,"1304 Champion Cir, Carrollton, TX, 75006-6803",(972) 247-9580, ,327211,Flat Glass Manufacturing,Potential Primary End Market,Glass,32.932136,-96.91346
393,"Custom Glass Atlanta, Inc.","1305 Opelika Rd Ste A, Auburn, AL, 36830-4000",(334) 826-0115,www.customglassatlanta.com,327211,Flat Glass Manufacturing,Potential Primary End Market,Glass,32.621636,-85.45406
394,Wolfram Inc,"1309 Doker Dr Ste B, Modesto, CA, 95351-1603",(209) 238-9610,www.wolframlights.com,327212,Other Pressed and Blown Glass and Glassware Manufacturing,Potential Primary End Market,Glass,37.648242,-121.0264
395,BTS Group,"1309 Plainfield Ave, Janesville, WI, 53545-0450", , ,327212,Other Pressed and Blown Glass and Glassware Manufacturing,Potential Primary End Market,Glass,42.720208,-89.00718
396,Beste Scientific Glass,"1309 Trail Way Dr, Grafton, WI, 53024-9755",(262) 375-8587, ,327212,Other Pressed and Blown Glass and Glassware Manufacturing,Potential Primary End Market,Glass,43.365631,-87.93094
397,Zoallc,"131 Ampersand Rd, Aberdeen, NC, 28315-8937",(910) 215-0235, ,327213,Glass Container Manufacturing,Potential Primary End Market,Glass,35.163058,-79.47264
398,Sky Blue Porcelain Inc,"131 Dun Rollin Ln, Port Angeles, WA, 98362-8412",(360) 452-0755, ,327212,Other Pressed and Blown Glass and Glassware Manufacturing,Potential Primary End Market,Glass,48.097302,-123.2747
399,Customized Stained Glass,"131 J C Bryant Rd, Hattiesburg, MS, 39401-8447",(601) 583-4720, ,327212,Other Pressed and Blown Glass and Glassware Manufacturing,Potential Primary End Market,Glass,31.411507,-89.36442
400,"V J Construction Glass, Inc.","1310 N Catalpa Ave, Anaheim, CA, 92801-1611", , ,327211,Flat Glass Manufacturing,Potential Primary End Market,Glass,33.85231,-117.9582
401,Cristacurva LLC,"13105 NW Fwy Ste 800, Houston, TX, 77040-6313",(713) 353-5800,www.cristacurva.com,327211,Flat Glass Manufacturing,Potential Primary End Market,Glass,29.84585,-95.50088
402,"Glass Wholesalers, Ltd.","13105 NW Fwy Ste 800, Houston, TX, 77040-6313",(713) 353-5800,www.craftsmanfab.com,327212,Other Pressed and Blown Glass and Glassware Manufacturing,Potential Primary End Market,Glass,29.84585,-95.50088
403,"Drug Plastics and Glass Company, Inc.","1311 4 Bottle Dr, Valley City, ND, 58072-4706",(701) 845-1898,www.drugplastics.com,327213,Glass Container Manufacturing,Potential Primary End Market,Glass,46.934635,-98.02552
404,"AGC Flat Glass North America, Inc.","1311 Clegg St Ste B, Petaluma, CA, 94954-7135", ,www.agc.com,327211,Flat Glass Manufacturing,Potential Primary End Market,Glass,38.267385,-122.6625
405,Tempco Glass Fabrication LLC,"13110 Maple Ave, Flushing, NY, 11355-4223",(718) 461-6888,www.tempcoglass.com,327211,Flat Glass Manufacturing,Potential Primary End Market,Glass,40.753892,-73.83469
406,Crystal Forge,"1312 Izard St, Omaha, NE, 68102-4214",(402) 408-1390, ,327212,Other Pressed and Blown Glass and Glassware Manufacturing,Potential Primary End Market,Glass,41.269026,-95.93339
407,"Pilkington North America, Inc.","13121 S Rocky Ford Rd, Laurinburg, NC, 28352-6216",(910) 276-5630,www.pilkington.com,327211,Flat Glass Manufacturing,Potential Primary End Market,Glass,34.752044,-79.4013
408,Viscosity,"13163 Azalea Ave, Boulder Creek, CA, 95006-9258",(206) 669-1955,www.viscositystudio.com,327212,Other Pressed and Blown Glass and Glassware Manufacturing,Potential Primary End Market,Glass,37.124045,-122.1256
409,Tint Pro,"1317 E Main St, Lehi, UT, 84043-9705",(801) 766-1174, ,327211,Flat Glass Manufacturing,Potential Primary End Market,Glass,40.388454,-111.8281
410,Lutz Bob & Son Beveling,"1317 Willowbrook Rd, New Castle, PA, 16101-5415",(724) 652-3156, ,327212,Other Pressed and Blown Glass and Glassware Manufacturing,Potential Primary End Market,Glass,40.979362,-80.30606
411,Cascade Architectural Products Inc,"132 George St, Turtle Creek, PA, 15145-1040",(412) 824-9313, ,327211,Flat Glass Manufacturing,Potential Primary End Market,Glass,40.426115,-79.82011
412,Art Counter,"132 Joe Knox Ave Ste 106, Mooresville, NC, 28117-9203",(704) 658-0312, ,327211,Flat Glass Manufacturing,Potential Primary End Market,Glass,35.591947,-80.87444
413,Milgard Manufacturing Incorporated,"1320 Business Park Dr, Dixon, CA, 95620-9765", ,www.milgard.com,327211,Flat Glass Manufacturing,Potential Primary End Market,Glass,38.458408,-121.8171
414,"Drake Precision Optics, Inc.","1320 Woodland CT, San Marcos, CA, 92069-3248",(760) 489-7783, ,327212,Other Pressed and Blown Glass and Glassware Manufacturing,Potential Primary End Market,Glass,33.145837,-117.1295
415,"Structure Glass Solutions, LLC","13202 NW 107th Ave Unit 8, Hialeah, FL, 33018-1289",(954) 499-9450,www.structuregs.com,327211,Flat Glass Manufacturing,Potential Primary End Market,Glass,25.978567,-80.30651
416,Corning Incorporated,"13221 Wdlnd Pk Rd Ste 400, Herndon, VA, 20171",(703) 448-1095,www.corning.com,327212,Other Pressed and Blown Glass and Glassware Manufacturing,Potential Primary End Market,Glass,38.953439,-77.4032
417,The Childs Studio LLC,"13228 SE 30th St Ste C1, Bellevue, WA, 98005-4449", ,www.tamarachildscollection.com,327212,Other Pressed and Blown Glass and Glassware Manufacturing,Potential Primary End Market,Glass,47.583813,-122.1636
418,Chad Empey,"1329 Scott St Ste G, Petaluma, CA, 94954-6557",(707) 762-1900,www.northbayglass.com,327211,Flat Glass Manufacturing,Potential Primary End Market,Glass,38.271448,-122.6641
419,Nekoosa Packaging Mexican Paper Corporation,"133 Peachtree St Ne # 1, Atlanta, GA, 30303-1804",(404) 652-4000, ,327213,Glass Container Manufacturing,Potential Primary End Market,Glass,33.757,-84.388
420,"Micromaterials, Inc.","13302 Telecom Dr, Temple Terrace, FL, 33637-0938",(813) 971-2818,www.micromaterialsinc.com,327212,Other Pressed and Blown Glass and Glassware Manufacturing,Potential Primary End Market,Glass,28.06772,-82.37467
421,Glass Garden,"13311 N Rome Ave, Tampa, FL, 33612-1815",(813) 936-2907, ,327212,Other Pressed and Blown Glass and Glassware Manufacturing,Potential Primary End Market,Glass,28.067861,-82.47573
422,Sheer Glass,"1333 Dolly Parton Pkwy B, Sevierville, TN, 37862-3714",(865) 270-5722,www.seviervilleshowerglass.com,327211,Flat Glass Manufacturing,Potential Primary End Market,Glass,35.863779,-83.52069
423,Simon Pearce,"1333 Lenape Rd, West Chester, PA, 19382-6816",(610) 793-0948, ,327212,Other Pressed and Blown Glass and Glassware Manufacturing,Potential Primary End Market,Glass,39.913392,-75.63099
424,Intex Forms Inc.,"1333 Old County Rd, Belmont, CA, 94002-3922",(650) 654-7855, ,327212,Other Pressed and Blown Glass and Glassware Manufacturing,Potential Primary End Market,Glass,37.518521,-122.2721
425,Fiberglass Contracting,"1335 Quincy St, Port Townsend, WA, 98368-5320", , ,327212,Other Pressed and Blown Glass and Glassware Manufacturing,Potential Primary End Market,Glass,48.122507,-122.7614
426,C J Fiberglass Co,"1335 W 15th St, Long Beach, CA, 90813-1303",(562) 590-8504,www.cjfiberglass.com,327212,Other Pressed and Blown Glass and Glassware Manufacturing,Potential Primary End Market,Glass,33.78559,-118.2094
427,Tint Pro's LLC,"1337 Hillcrest Dr Ne B2, Minneapolis, MN, 55432-5827",(612) 229-5691,www.tintprosmobile.com,327211,Flat Glass Manufacturing,Potential Primary End Market,Glass,45.077515,-93.23382
428,Bill Dalke Fiber Glass,"1337 North Blvd, Central Valley, CA, 96019-9540",(530) 275-8865, ,327212,Other Pressed and Blown Glass and Glassware Manufacturing,Potential Primary End Market,Glass,40.683473,-122.3753
429,"Gold Coast Skylights, Inc.","1338 N Melrose Dr Ste I, Vista, CA, 92083-2923",(760) 758-2864,www.goldcoastskylights.com,327211,Flat Glass Manufacturing,Potential Primary End Market,Glass,33.21729,-117.2565
430,Global Glass Corp,"134 Woodbury Rd, Hicksville, NY, 11801-3025",(516) 681-2309,www.globalglasscorp.com,327211,Flat Glass Manufacturing,Potential Primary End Market,Glass,40.772096,-73.51759
431,Ziets,"13406 Benton Rd, Salem, OH, 44460-9106",(330) 332-5607, ,327212,Other Pressed and Blown Glass and Glassware Manufacturing,Potential Primary End Market,Glass,40.921437,-80.90465
432,Pro Tint LLC,"13409 W Shore Rd, Nine Mile Falls, WA, 99026-9366",(509) 468-8468, ,327211,Flat Glass Manufacturing,Potential Primary End Market,Glass,47.810967,-117.6037
433,General Construction & Glass LLC,"13422 Scott St, Gulfport, MS, 39503-5310", , ,327211,Flat Glass Manufacturing,Potential Primary End Market,Glass,30.482501,-89.04247
434,Eyes On Broadway,"1344 Broadway, Hewlett, NY, 11557-1356",(516) 295-8600,www.eyesonbroadwayny.com,327212,Other Pressed and Blown Glass and Glassware Manufacturing,Potential Primary End Market,Glass,40.640721,-73.69901
435,"PHOTRAN, LLC","13446 Poway Rd Pmb 150, Poway, CA, 92064-4714",(858) 748-0850,www.photran.com,327212,Other Pressed and Blown Glass and Glassware Manufacturing,Potential Primary End Market,Glass,32.956544,-117.0402
436,Palmer Deep Draw & Stamping LLC,"135 S Main St, Thomaston, CT, 06787-1754", , ,327213,Glass Container Manufacturing,Potential Primary End Market,Glass,41.669615,-73.07747
437,Jaspers Global Manufacturing Inc.,"13505 Yorba Ave Ste D, Chino, CA, 91710-5076",(909) 464-2293,www.jaspers-global-manufacturing-inc.business.site,327213,Glass Container Manufacturing,Potential Primary End Market,Glass,34.008097,-117.7022
438,Everbowl Inc.,"13538 Poway Rd, Poway, CA, 92064-6547",(858) 668-7442,www.everbowl.com,327212,Other Pressed and Blown Glass and Glassware Manufacturing,Potential Primary End Market,Glass,32.956511,-117.0377
439,Libbey Inc.,"1359 W Madero Ave, Mesa, AZ, 85202-7513", ,www.libbey.com,327212,Other Pressed and Blown Glass and Glassware Manufacturing,Potential Primary End Market,Glass,33.370078,-111.8641
440,Standard Bent Glass LLC,"136 Lincoln Ave, East Butler, PA, 16029",(724) 287-3747,www.standardbent.com,327211,Flat Glass Manufacturing,Potential Primary End Market,Glass,40.877484,-79.8503
441,Led Your,"13615 Oakland Dr, Burnsville, MN, 55337-4122",(651) 434-1636, ,327212,Other Pressed and Blown Glass and Glassware Manufacturing,Potential Primary End Market,Glass,44.756667,-93.26695
442,Stephanie Dulaney,"1364 College Park, Fairmont, WV, 26554-4820",(304) 816-2143, ,327212,Other Pressed and Blown Glass and Glassware Manufacturing,Potential Primary End Market,Glass,39.487393,-80.16045
443,Exclusive-Barware,"13650 Fiddlesticks Blvd, Fort Myers, FL, 33912-0312",(239) 245-8372, ,327212,Other Pressed and Blown Glass and Glassware Manufacturing,Potential Primary End Market,Glass,26.545238,-81.80426
444,"Eye Was Framed, LLC","137 S Robertson Blvd, Beverly Hills, CA, 90211-2801",(310) 877-4100, ,327211,Flat Glass Manufacturing,Potential Primary End Market,Glass,34.066362,-118.3837
445,"World Wine Bottles, LLC","1370 Trancas St Ste 411, NAPA, CA, 94558-2912",(707) 339-2102,www.worldwinebottles.com,327213,Glass Container Manufacturing,Potential Primary End Market,Glass,38.322357,-122.3028
446,Five & A Half Arms,"13710 Township Rd, Findlay, OH, 45840",(419) 348-2974, ,327212,Other Pressed and Blown Glass and Glassware Manufacturing,Potential Primary End Market,Glass,41.0413,-83.6448
447,"Owens-Brockway Glass Container, Inc.","13711 Regional Dr, Laredo, TX, 78045-9404",(956) 717-4200,www.o-i.com,327213,Glass Container Manufacturing,Potential Primary End Market,Glass,27.693526,-99.45612
448,Victor Gelb Inc,"1374 Markle St, Akron, OH, 44306-1801",(330) 773-6654,www.finitefiber.com,327212,Other Pressed and Blown Glass and Glassware Manufacturing,Potential Primary End Market,Glass,41.058281,-81.4801
449,Edmond Glass,"13778 N Lincoln Blvd, Edmond, OK, 73013-3414",(405) 751-5900,www.edmondglass.com,327211,Flat Glass Manufacturing,Potential Primary End Market,Glass,35.610593,-97.50482
450,Ws Scientific,"13782 A Better Way, Garden Grove, CA, 92843-3906", , ,327212,Other Pressed and Blown Glass and Glassware Manufacturing,Potential Primary End Market,Glass,33.762685,-117.9252
451,Vizimage LLC,"13840 Darnel CT W, Rosemount, MN, 55068-3305",(651) 322-7440,www.vizimage.com,327212,Other Pressed and Blown Glass and Glassware Manufacturing,Potential Primary End Market,Glass,44.749194,-93.15349
452,Ardagh Glass Inc.,"13850 Cottage Grove Ave, Dolton, IL, 60419-1052",(708) 849-4010,www.ardaghgroup.com,327213,Glass Container Manufacturing,Potential Primary End Market,Glass,41.643737,-87.5979
453,Donald Carlson,"1389 Old River Rd Ne, Siletz, OR, 97380-9706",(541) 444-2972,www.carlsonartglass.com,327212,Other Pressed and Blown Glass and Glassware Manufacturing,Potential Primary End Market,Glass,44.737934,-123.9087
454,Thames Glass Inc,"139 Old Beach Rd, Newport, RI, 02840-3358",(401) 846-0576,www.thamesglass.com,327212,Other Pressed and Blown Glass and Glassware Manufacturing,Potential Primary End Market,Glass,41.488369,-71.29906
455,Bristow Studio Glass,"139 Sharon Valley Rd, Sharon, CT, 06069-2093",(860) 364-1670, ,327212,Other Pressed and Blown Glass and Glassware Manufacturing,Potential Primary End Market,Glass,41.883425,-73.49289
456,Westheir Ltd. Co.,"13908 Lyndon B Johnson St, Manor, TX, 78653-4126",(512) 761-8557, ,327212,Other Pressed and Blown Glass and Glassware Manufacturing,Potential Primary End Market,Glass,30.359444,-97.52571
457,Sonny's Pure Water,"13916 Brookhurst St Ste B, Garden Grove, CA, 92843-4331",(714) 638-2592, ,327213,Glass Container Manufacturing,Potential Primary End Market,Glass,33.760195,-117.9548
458,Nourot Glass Studio,"1398 W K St, Benicia, CA, 94510-2445", ,www.nourot.com,327212,Other Pressed and Blown Glass and Glassware Manufacturing,Potential Primary End Market,Glass,38.066055,-122.1825
459,Northeast Laminated Glass Corporation,"14 Alberigi Dr, Jessup, PA, 18434-1827",(570) 489-6421,www.lamiglass.net,327211,Flat Glass Manufacturing,Potential Primary End Market,Glass,41.4598,-75.5592
460,"LTI Smart Glass, Inc.","14 Federico Dr, Pittsfield, MA, 01201-5518",(413) 637-5001,www.ltisg.com,327211,Flat Glass Manufacturing,Potential Primary End Market,Glass,42.456243,-73.19341
461,Unfnshd Craft LLC,"14 Glica CT, Hampton, VA, 23666-5698",(757) 813-4638, ,327212,Other Pressed and Blown Glass and Glassware Manufacturing,Potential Primary End Market,Glass,37.059376,-76.44347
462,Vivreau Advanced Water Systems,"14 Madison Rd Ste 30, Fairfield, NJ, 07004-2326", ,www.vivreauwater.com,327213,Glass Container Manufacturing,Potential Primary End Market,Glass,40.871799,-74.30908
463,Elite Glass Fabrication LLC,"14 Wall St Ste 3a, New York, NY, 10005-2119",(201) 333-8100, ,327211,Flat Glass Manufacturing,Potential Primary End Market,Glass,40.70733,-74.01096
464,Cardinal CT Company,"140 Carey St, Utica, OH, 43080-9004",(740) 892-2324,www.cardinalhealth.com,327211,Flat Glass Manufacturing,Potential Primary End Market,Glass,40.231635,-82.44678
465,"Cardinal Glass Industries, Inc.","140 Carey St, Utica, OH, 43080-9004",(740) 892-2324,www.cardinalcorp.com,327211,Flat Glass Manufacturing,Potential Primary End Market,Glass,40.231635,-82.44678
466,"Pilkington North America, Inc.","140 Dixie Hwy, Rossford, OH, 43460-1215",(419) 247-3211,www.pilkington.com,327211,Flat Glass Manufacturing,Potential Primary End Market,Glass,41.615272,-83.55206
467,Frantz Glass Gallery,"140 E Hideaway Ln, Shelton, WA, 98584-6932",(360) 426-6712,www.frantzartglass.com,327212,Other Pressed and Blown Glass and Glassware Manufacturing,Potential Primary End Market,Glass,47.26519,-122.9165
468,"Eurokera North America, Inc.","140 Southchase Blvd, Fountain Inn, SC, 29644-9020",(864) 963-8082,www.eurokera.com,327212,Other Pressed and Blown Glass and Glassware Manufacturing,Potential Primary End Market,Glass,34.693091,-82.24101
469,"McGrory Glass, Inc.","1400 Grandview Ave, Paulsboro, NJ, 08066-1801",(856) 579-3200,www.mcgrory.com,327211,Flat Glass Manufacturing,Potential Primary End Market,Glass,39.834185,-75.20049
470,Owens-Brockway Glass Container Inc.,"1400 W 4th St, Antioch, CA, 94509-1075", ,www.o-i.com,327213,Glass Container Manufacturing,Potential Primary End Market,Glass,38.015609,-121.8246
471,Waxahachie Glass Corporation,"1400 W Marvin Ave, Waxahachie, TX, 75165-2938",(972) 938-3505, ,327211,Flat Glass Manufacturing,Potential Primary End Market,Glass,32.399371,-96.8579
472,"Pilkington North America, Inc.","1400 Weiss St, Saginaw, MI, 48602-5278",(989) 754-2956,www.pilkington.com,327211,Flat Glass Manufacturing,Potential Primary End Market,Glass,43.443718,-83.96063
473,Fri Jado Inc,"1401 Davey Rd Ste 100, Woodridge, IL, 60517-4964",(630) 633-7944,www.frijado.com,327213,Glass Container Manufacturing,Potential Primary End Market,Glass,41.692805,-88.01592
474,Lori Dudley,"1401 Francis St, Carrollton, TX, 75006-7248",(972) 446-7707, ,327212,Other Pressed and Blown Glass and Glassware Manufacturing,Potential Primary End Market,Glass,32.95192,-96.90274
475,Lastech LLC,"14010 Ne 3rd CT Bldg A, Vancouver, WA, 98685-2928",(360) 448-7947,www.lastechllc.com,327211,Flat Glass Manufacturing,Potential Primary End Market,Glass,45.721993,-122.6681
476,Corey Broman,"1402 S 50th St, Omaha, NE, 68106-2418",(402) 960-4255,www.glassharmony.com,327212,Other Pressed and Blown Glass and Glassware Manufacturing,Potential Primary End Market,Glass,41.245805,-95.99025
477,"Ellum Labs, LLC","1404 Santa Fe Trl, Carrollton, TX, 75007-6004",(972) 904-6220, ,327213,Glass Container Manufacturing,Potential Primary End Market,Glass,32.999548,-96.9239
478,Evert Engelman,"1404 Tanglewood Trl, Euless, TX, 76040-6435", , ,327213,Glass Container Manufacturing,Potential Primary End Market,Glass,32.81762,-97.15428
479,Decicio Glass,"1407 9th Ave W APT E, Seattle, WA, 98119-3260",(206) 229-7331,www.decicioglass.com,327212,Other Pressed and Blown Glass and Glassware Manufacturing,Potential Primary End Market,Glass,47.631605,-122.3691
480,"Heavylux, Inc.","14075 Catalina St, San Leandro, CA, 94577-5507",(510) 667-0781,www.heavylux.com,327211,Flat Glass Manufacturing,Potential Primary End Market,Glass,37.697318,-122.1733
481,Black Rabbit Custom Accessories LLC,"141 Candlewood Way APT C, Newport News, VA, 23606-3237",(757) 933-7496, ,327212,Other Pressed and Blown Glass and Glassware Manufacturing,Potential Primary End Market,Glass,37.079344,-76.48044
482,D & E Bottling Company,"1410 Primrose Curv, Saint Paul, MN, 55113-1855",(651) 633-4434, ,327213,Glass Container Manufacturing,Potential Primary End Market,Glass,45.022426,-93.15967
483,"Kyser, Cornita","1412 Bar Harbour Rd, Aurora, IL, 60504-6865",(630) 328-9242, ,327212,Other Pressed and Blown Glass and Glassware Manufacturing,Potential Primary End Market,Glass,41.730976,-88.24364
484,"Guardian Industries, LLC","1412 S 1st St, Rogers, AR, 72756-5479", ,www.guardian.com,327211,Flat Glass Manufacturing,Potential Primary End Market,Glass,36.320549,-94.11719
